lat,long,label
35,135.685,松尾大社
33.6659,135.335,三段壁
33.83,135.777,備宿
34.071,134.557,徳島地方裁判所
34.0741,134.528,佐古配水場ポンプ場
34.0746,134.573,徳島県立徳島商業高等学校
34.1022,134.553,四国大学短期大学部
34.1652,134.822,南あわじ市立沼島小学校
34.1727,134.595,徳島県立鳴門第一高等学校
34.2147,135.182,三菱電機冷熱システム製作所
34.4667,135.817,奈良県立万葉文化館
34.4727,135.572,国立病院機構大阪南医療センター
34.4728,135.401,マルフク (貸金業)
34.4733,135.821,板蓋宮
34.4772,135.817,奈良県立万葉文化館
34.4824,135.581,大阪大谷大学
34.4834,135.534,プール学院大学
34.4911,135.44,信太山駐屯地
34.5019,135.586,大平和祈念塔
34.5186,135.744,オークタウン大和高田
34.5536,135.609,古市駅 (大阪府)
34.5589,135.484,堺市博物館
34.5778,135.58,吉村家住宅
34.5909,135.711,西和警察署
34.5974,135.583,八尾南駅
34.6012,135.59,八尾市立図書館
34.6012,135.6,八尾市立図書館
34.6012,135.608,八尾市立図書館
34.6041,135.444,堺市立サッカー・ナショナルトレーニングセンター
34.6041,135.501,大阪市立住吉図書館
34.6082,135.531,大阪芸術大学短期大学部
34.6089,135.003,松帆崎
34.6121,135.59,八尾市立図書館
34.6121,135.6,八尾市立図書館
34.6121,135.608,八尾市立図書館
34.6124,135.494,住吉大社
34.6263,135.59,八尾市立図書館
34.6263,135.6,八尾市立図書館
34.6263,135.608,八尾市立図書館
34.628,135.62,河内山本駅
34.628,135.59,八尾市立図書館
34.628,135.6,八尾市立図書館
34.628,135.608,八尾市立図書館
34.6292,135.063,東垂水駅
34.6295,135.054,垂水駅
34.6328,135.224,神戸空港
34.6336,135.083,塩屋駅 (兵庫県)
34.6338,135.603,大阪経済法科大学
34.6372,135.418,大阪国際見本市会場
34.6379,135.414,大幸工業株式会社スペシャルチャレンジ
34.6381,135.538,東部市場前駅
34.6404,135.603,大阪経済法科大学
34.6422,134.99,旧波門崎燈籠堂
34.6423,135.053,神戸朝鮮高級学校
34.6432,135.122,和田岬灯台
34.6443,135.514,あべのand
34.6444,135.018,朝霧駅
34.6459,135.113,須磨浦小学校
34.6487,134.993,山陽明石駅
34.6494,135.001,明石市立天文科学館
34.6494,134.997,神戸大学附属明石小学校
34.6509,135.472,大阪市立大正図書館
34.6521,135.15,駒ヶ林駅
34.6527,135.512,一心寺シアター倶楽
34.6542,134.994,兵庫県立図書館
34.6546,135.165,御崎公園駅
34.6546,135.487,大阪人権博物館
34.6548,135.222,京コンピュータ前駅
34.6562,135.431,天保山大観覧車
34.6585,135.146,新長田駅
34.6586,135.216,医療センター駅
34.6586,135.496,大阪市立浪速図書館
34.6615,135.522,大阪市立天王寺図書館
34.6619,135.432,桜島駅
34.6641,135.601,近鉄ハーツ
34.6648,135.52,上本町YUFURA
34.6648,135.5,新歌舞伎座 (大阪)
34.6649,135.212,市民広場駅
34.6649,135.501,南海ビルディング
34.6655,135.48,大正駅 (大阪府)
34.6659,135.5,新歌舞伎座 (大阪)
34.6662,135.176,中央市場前駅
34.6662,135.519,上六
34.6671,135.504,千日前
34.6671,135.507,日本橋駅 (大阪府)
34.6671,135.516,谷町九丁目駅
34.6675,135.143,神戸常盤女子高等学校
34.6677,135.459,大阪市立港図書館
34.6677,135.208,神戸女子短期大学
34.6678,135.439,ユニバーサルシティ駅
34.6682,135.486,汐見橋駅
34.6682,135.554,新深江駅
34.6684,135.437,ユニバーサル・シティウォーク大阪
34.6685,135.152,長田駅 (神戸市営地下鉄)
34.6686,135.202,ポートアイランド西公園
34.6689,135.094,神戸市立多井畑小学校
34.6691,135.21,みなとじま駅
34.6707,134.936,中八木駅
34.6707,135.462,交通科学博物館
34.6719,135.507,島之内
34.672,135.828,京終地蔵院
34.672,135.833,宝珠寺 (奈良市)
34.6721,135.498,アメリカ村
34.6725,135.5,心斎橋
34.6732,135.158,上沢駅
34.6733,135.17,神戸市立兵庫中学校
34.6733,135.833,れんじょう寺
34.6736,135.215,北埠頭駅
34.6737,135.208,ポートアイランド中公園
34.6738,135.444,安治川口駅
34.6744,135.445,西成線列車脱線火災事故
34.6746,135.506,長堀橋駅
34.6748,135.508,大阪維新の会
34.675,135.11,妙法寺駅 (兵庫県)
34.6754,135.494,西大橋駅
34.6754,135.846,比売神社 (奈良市)
34.6754,135.832,八王子社 (奈良市納院町)
34.6755,135.512,松屋町駅
34.6768,135.205,ポートアイランド北公園
34.6781,135.157,会下山
34.6783,135.182,神戸情報文化ビル
34.6783,135.18,神戸ハーバーランドセンタービル
34.6783,135.834,旧大乗院庭園
34.6785,135.179,ハーバーランド駅
34.6789,135.831,住吉神社 (奈良市)
34.6791,135.182,神戸ハーバーランド
34.6792,134.919,江井ヶ島駅
34.6793,135.094,名谷駅
34.6793,135.166,湊川駅
34.6794,135.174,高速神戸駅
34.6794,135.167,湊川公園駅
34.6797,135.522,法円坂
34.6802,135.641,新石切駅
34.6803,135.624,吉田駅 (大阪府)
34.6807,135.523,難波宮
34.6807,135.819,奈良駅
34.6808,135.499,坐摩神社
34.6817,135.076,総合運動公園駅
34.6817,135.188,メリケンパーク
34.6818,135.524,馬場町 (大阪市)
34.6818,135.828,隼神社 (奈良市)
34.6819,135.499,本町駅
34.6819,135.517,谷町四丁目駅
34.682,135.499,本町 (大阪市)
34.682,135.531,大阪城公園
34.6821,135.146,神戸水天宮
34.6825,135.187,神戸ポートタワー
34.6828,135.176,神戸地方裁判所
34.6828,135.519,大阪家庭裁判所
34.6832,135.509,東警察署 (大阪府)
34.6833,135.167,神戸市水の科学博物館
34.6833,135.2,防災未来館
34.6833,135.183,神戸華僑歴史博物館
34.6833,135.5,くすりの道修町資料館
34.6839,135.18,西元町駅
34.6842,135.271,神戸市立六甲アイランド高等学校
34.6844,135.838,氷室神社
34.6846,135.175,大倉山駅 (兵庫県)
34.6846,135.536,森之宮
34.6846,135.524,石山本願寺
34.6851,135.831,奈良地方裁判所
34.6852,135.802,イトーヨーカドー奈良店
34.6854,135.494,靱公園
34.6856,135.174,神戸市立図書館
34.6856,135.838,依水園
34.6858,135.193,神戸海軍操練所
34.6858,134.908,西江井ヶ島駅
34.6859,135.457,大阪市立此花図書館
34.6863,135.831,奈良県文化会館
34.6881,135.193,神戸外国人居留地
34.6881,135.167,神戸市立湊翔楠中学校
34.6883,135.271,神戸ファッションプラザ
34.6884,135.194,神戸らんぷミュージアム
34.6886,135.199,神戸サンボーホール
34.689,135.475,野田駅 (JR西日本)
34.689,135.84,東大寺盧舎那仏像
34.6894,135.199,貿易センター駅
34.6894,135.192,神戸朝日ビル
34.6896,135.187,元町駅 (兵庫県)
34.6896,135.476,玉川駅 (大阪府)
34.6902,135.516,京阪シティモール
34.6907,135.195,花時計 (神戸市)
34.6907,135.504,今橋 (大阪市)
34.6909,135.472,福島警察署 (大阪府)
34.6909,135.184,県庁前駅 (兵庫県)
34.6909,135.487,中之島駅
34.6911,135.517,天満橋
34.6911,135.508,大阪証券ビル本館
34.6912,135.532,シアターBRAVA!
34.6914,135.496,肥後橋駅
34.6916,135.196,三宮・花時計前駅
34.6916,135.503,北浜
34.6917,135.194,三宮ビブレ
34.6917,135.491,中之島 (大阪府)
34.693,135.195,そごう神戸店
34.6938,135.495,渡辺橋駅
34.6938,135.502,大阪市庁舎
34.6943,135.526,大阪城北詰駅
34.6945,135.49,大阪高等検察庁
34.6945,135.503,水晶橋
34.6946,135.193,北向地蔵 (神戸市)
34.6946,135.194,三宮駅
34.695,135.486,新福島駅
34.6951,135.495,堂島
34.6958,135.504,大阪地方裁判所
34.696,135.488,福島駅 (阪神)
34.696,135.513,大阪天満宮
34.6961,135.214,なぎさ公園 (神戸市)
34.6961,135.511,大阪市消防局
34.6963,135.53,京橋花月
34.6965,134.906,魚住駅
34.6974,135.185,神戸 はばたきの坂
34.6974,135.185,神戸移住センター
34.6975,135.187,旧キャセリン・アンダーセン邸
34.6977,135.511,南森町
34.6979,135.187,シュウエケ邸
34.6981,135.521,泉布観
34.6981,135.49,ゲートタワービル
34.6982,135.6,鴻池新田
34.6983,135.491,毎日新聞大阪本社
34.6983,135.497,北新地駅
34.6994,135.03,西神南駅
34.6994,135.528,網島駅
34.7,134.888,東二見駅
34.7004,135.206,中村八幡神社 (神戸市)
34.701,135.189,旧シャープ住宅
34.7013,135.19,北野町山本通
34.7019,135.56,今福鶴見駅
34.7025,135.217,東神戸駅
34.7025,135.677,生駒山麓公園
34.703,135.191,うろこの家・うろこ美術館
34.703,135.205,春日野道駅 (阪神)
34.7044,135.834,奈良豆比古神社の翁舞
34.7049,135.375,武庫川団地前駅
34.7053,135.494,大深町
34.7059,135.225,西灘駅
34.7069,135.197,竹中大工道具館
34.7072,134.877,西二見駅
34.7072,135.499,茶屋町 (大阪市)
34.7085,135.62,ポップタウン住道
34.709,135.526,都島駅
34.7097,135.194,布引の滝
34.71,135.197,神戸第一高等学校
34.7107,135.241,新在家駅
34.7107,135.516,鶴満寺
34.7111,134.86,兵庫県道539号東播磨港線
34.7122,135.212,神戸海星女子学院大学
34.7126,135.379,東鳴尾駅
34.7126,135.469,塚本駅
34.7126,135.456,御幣島駅
34.716,135.42,尼崎市立琴ノ浦高等学校
34.7171,135.147,鈴蘭台車両基地
34.7174,135.363,甲子園阪神パーク
34.718,135.395,尼崎センタープール前駅
34.7182,135.405,出屋敷駅
34.7184,135.439,杭瀬駅
34.7195,135.262,住吉駅 (JR西日本・神戸新交通)
34.7195,135.262,住吉駅 (JR西日本・神戸新交通)
34.7196,135.37,鳴尾駅
34.7196,135.262,住吉駅 (JR西日本・神戸新交通)
34.7196,135.262,住吉駅 (JR西日本・神戸新交通)
34.7196,135.59,稗島の樟
34.7197,135.019,プレンティ
34.72,135.226,山口組
34.7205,134.824,神戸製鋼所加古川製鉄所
34.7238,135.779,石のカラト古墳
34.7241,135.333,西宮砲台
34.7265,135.499,西中島南方駅
34.7271,134.877,大中遺跡
34.7287,135.31,兵庫県立芦屋高等学校
34.7314,134.88,イオンタウン東加古川ショッピングセンター
34.7321,134.836,加古川市立浜の宮小学校
34.7332,135.323,堀切信号場
34.7332,135.432,アミング潮江
34.7381,135.096,川池信号所
34.7381,135.573,パナソニックミュージアム 松下幸之助歴史館
34.7472,134.827,兵庫県道209号鶴林寺線
34.7484,135.071,木幡駅 (兵庫県)
34.7494,135.261,五助堰堤
34.7502,135.329,苦楽園口駅
34.7543,135.348,西宮市立広田小学校
34.7579,134.794,荒井駅 (兵庫県)
34.7579,135.358,門戸厄神駅
34.7579,135.497,江坂駅
34.7603,135.627,大阪電気通信大学
34.7628,134.836,加古川市立加古川図書館
34.7656,135.519,大和大学
34.7671,135.36,甲東園駅
34.7673,134.787,伊保駅
34.7703,134.857,加古川市立氷丘中学校
34.7703,135.023,広野ゴルフ場前駅
34.7758,134.642,新日鐵住金広畑製鐵所
34.7765,134.771,兵庫県道555号曽根阿弥陀線
34.7769,135.786,鞍岡神社
34.7799,134.742,的形駅
34.7803,135.464,豊中市立岡町図書館
34.7803,134.884,甲南加古川病院
34.7807,135.198,大池駅
34.7808,134.795,竜山石採石遺跡
34.7844,135.439,大阪国際空港
34.7864,135.554,摂津市駅
34.7872,134.783,兵庫県道395号曽根魚橋線
34.7903,135.352,宝塚市立図書館
34.7903,135.353,宝塚市立図書館
34.7903,135.366,宝塚市立図書館
34.7933,134.77,曽根駅 (兵庫県)
34.7978,134.628,広畑駅
34.7979,134.998,恵比須駅
34.8042,135.346,宝塚南口駅
34.8107,135.558,イオンモール茨木
34.811,135.352,宝塚市立図書館
34.811,135.353,宝塚市立図書館
34.811,135.366,宝塚市立図書館
34.8153,135.661,百済寺 (枚方市)
34.8169,134.655,西播朝鮮初中級学校
34.8169,134.736,御着駅
34.818,135.427,インスタントラーメン発明記念館
34.818,135.352,宝塚市立図書館
34.818,135.353,宝塚市立図書館
34.818,135.366,宝塚市立図書館
34.8186,135.524,大阪大学
34.8186,135.646,関西医科大学
34.8206,135.425,サンシティ池田
34.8208,135.679,京阪バス枚方営業所
34.8216,134.678,姫路市立手柄小学校
34.8216,135.425,サンシティ池田
34.8254,135.432,大阪府立池田高等学校
34.8266,135.413,川西市立中央図書館
34.8268,134.732,播磨国分尼寺跡
34.8272,134.694,テラッソ姫路
34.8294,134.693,姫路フォーラス
34.8294,135.567,パナソニック プラズマディスプレイ
34.8355,135.226,田尾寺駅
34.8356,135.352,宝塚市立図書館
34.8356,135.353,宝塚市立図書館
34.8356,135.366,宝塚市立図書館
34.8357,134.556,片吹ランプ
34.8413,134.681,姫路少年刑務所
34.8418,134.688,姫路文学館
34.8418,134.689,男山八幡宮 (姫路市)
34.842,134.659,播磨高岡駅
34.86,135.195,イオンモール神戸北
34.8696,134.953,小野市立ひまわりの丘公園
34.8696,135.804,山形県総合運動公園
34.8796,135.713,八幡市立八幡東小学校
34.881,135.774,ウトロ地区
34.8932,135.675,山崎蒸溜所
34.8932,135.746,イオンモール久御山
34.933,135.764,伏見大手筋商店街
34.9569,135.756,竹田駅 (京都府)
34.9668,135.059,上鴨川住吉神社神事舞
34.9669,135.757,京阪バス洛南営業所
34.9697,135.756,任天堂
34.9697,135.756,任天堂情報開発本部
34.9771,135.774,東福寺
34.9879,135.774,養源院
34.9881,135.78,京都女子大学短期大学部
34.991,135.758,東本願寺
34.992,135.744,島原 (京都)
34.9921,135.743,角屋
34.9941,135.776,円通橋
34.9958,135.718,京都光華女子大学
34.9961,135.769,清水五条駅
34.9972,135.756,京都市立格致小学校
34.9974,135.727,イオンモール京都五条
34.0482,134.535,夷山城
34.0735,134.549,そごう徳島店
34.1679,134.618,徳島県鳴門総合運動公園陸上競技場
34.188,135.182,和歌山県立医科大学附属病院
34.2284,135.176,和歌山地方裁判所
34.2336,134.712,若人の広場
34.4112,135.301,りんくう現代美術空間
34.4361,135.586,河内長野市立川上小学校
34.4455,135.712,葛城一言主神社
34.4596,135.558,寺ヶ池公園
34.4727,135.818,川原寺
34.4733,135.821,飛鳥京跡
34.5018,135.427,池上・曽根遺跡
34.5628,135.491,塚廻古墳
34.5653,135.493,三国ヶ丘駅
34.593,135.704,奈良県立高田高等学校王寺分校
34.5974,135.844,天理小学校
34.5977,135.457,新日鐵住金堺製鐵所
34.6218,135.79,奈良県立大和中央高等学校
34.6223,135.584,久宝寺駅
34.6261,135.048,三井アウトレットパーク マリンピア神戸
34.6291,135.054,海神社 (神戸市)
34.6308,135.042,霞ヶ丘駅 (兵庫県)
34.6336,135.517,昭和町駅 (大阪府)
34.6347,135.428,相愛大学
34.6413,135.524,河堀口駅
34.6422,135.769,アピタ大和郡山店
34.6433,135.553,南巽駅
34.6443,135.505,飛田遊廓
34.6458,135.439,港大橋
34.6465,135.008,大蔵谷駅
34.6471,135.506,東組
34.648,135.513,天王寺
34.6488,135.504,動物園前駅
34.6497,134.981,西新町駅
34.6499,135.506,ジャンジャン横丁
34.652,134.965,林崎松江海岸駅
34.6525,135.506,通天閣
34.6527,135.771,久松寺 (大和郡山市)
34.6542,135.493,今宮駅
34.6561,135.498,大国町駅
34.6563,135.524,大阪市立大阪ビジネスフロンティア高等学校
34.6584,135.433,大阪市の公営渡船
34.6608,135.447,大阪プール
34.664,135.501,なんばCITY
34.6647,135.55,今里駅 (近鉄)
34.6655,135.709,南生駒駅
34.6668,135.584,大阪商業大学商業史博物館
34.667,135.506,近鉄日本橋駅
34.6672,135.5,難波
34.6677,134.968,岩佐家住宅
34.6681,135.541,大阪市立東成図書館
34.6683,135.715,小瀬料金所
34.6685,135.503,道頓堀角座
34.6691,135.501,戎橋
34.6696,135.214,神戸市立港島中学校
34.6702,135.143,兵庫県立長田高等学校
34.6706,135.82,イオンタウン大安寺
34.6715,135.436,新日鐵住金製鋼所
34.6719,135.525,円珠庵
34.673,135.844,奈良教育大学
34.6732,135.207,中公園駅
34.6736,135.532,玉造 (大阪市)
34.6749,135.517,谷町六丁目駅
34.6751,135.83,藤岡家住宅
34.6754,135.844,奈良教育大学附属小学校
34.6758,135.841,閼伽井庵
34.6769,135.843,赤穂神社
34.6775,135.227,神戸港
34.6781,135.521,大槻能楽堂
34.6788,135.592,長田駅 (大阪府)
34.6792,135.183,Umie
34.6794,135.165,神戸市立湊川中学校
34.6796,135.182,ダイヤニッセイビル
34.6807,135.828,古梅園
34.6818,135.827,シネマデプト友楽
34.682,135.835,影向の松 (春日大社)
34.6831,135.863,春日山原始林
34.6839,135.843,奈良県新公会堂
34.685,135.506,堺筋野村ビルディング
34.6852,135.837,吉城園
34.6854,135.506,第二野村ビルディング
34.6858,135.144,丸山駅 (兵庫県)
34.6869,135.057,流通科学大学
34.688,135.563,放出駅
34.6886,135.534,大阪城公園駅
34.6893,134.902,山陽魚住駅
34.6914,135.507,大阪取引所
34.6916,135.507,北浜駅 (大阪府)
34.6936,135.497,フェスティバルホール
34.694,135.524,大阪市公館
34.6942,135.759,蛙股池
34.6944,135.476,野田駅 (阪神)
34.6946,135.475,野田阪神駅
34.695,135.785,ならファミリー
34.6953,135.384,尼崎の森中央緑地
34.6957,135.739,百楽荘 (奈良県の旅館)
34.6959,135.066,太山寺安養院庭園
34.6961,135.521,天満本願寺
34.6963,135.53,KiKi京橋
34.697,135.532,京阪モール
34.6974,135.513,大阪天満宮駅
34.6976,135.504,宇治電ビルディング
34.6978,135.501,同和ビルヂング
34.6987,135.186,神戸外国倶楽部
34.6993,135.807,奈良基地
34.6998,135.19,北野物語館
34.7,135.497,梅田
34.7004,135.548,蒲生四丁目駅
34.7013,135.192,神戸北野美術館
34.7025,135.554,大阪電気軌道四条畷線
34.704,135.5,HEP
34.7043,135.574,大阪市立鶴見図書館
34.7058,135.766,奈良県立奈良工業高等学校
34.7068,135.501,梅田ゲートタワー
34.7085,135.518,都島橋
34.7107,135.81,平城山駅
34.7109,135.511,天六
34.7113,135.412,新日鐵住金尼崎製造所
34.7122,135.593,三井アウトレットパーク 大阪鶴見
34.716,135.481,大阪市立淀川図書館
34.7165,135.426,大物駅
34.7169,135.592,門真南駅
34.7186,135.22,河内国魂神社
34.7194,135.247,神戸市バス石屋川営業所
34.7199,135.483,十三駅
34.7212,135.596,薫蓋クス
34.7237,135.146,鈴蘭台駅
34.7248,135.261,禍福無門の碑
34.7257,135.135,西鈴蘭台駅
34.7269,135.612,京阪バス門真営業所
34.7276,135.213,摩耶観光ホテル
34.728,135.155,神戸親和女子大学
34.7282,135.511,柴島駅
34.7302,134.851,別府駅 (兵庫県)
34.7316,135.432,尼崎駅 (JR西日本)
34.7344,135.329,香櫨園駅
34.7368,135.339,エビスタ西宮
34.7376,135.181,神戸市立森林植物園
34.7381,135.564,守口駅
34.7409,134.834,浜の宮駅
34.7458,134.869,東加古川駅
34.7471,135.08,見津車庫
34.7473,135.871,常念寺
34.7486,135.58,イオンモール大日
34.7494,135.578,大日駅
34.7565,135.791,来迎寺 (京都府精華町)
34.7569,135.156,箕谷駅
34.7599,135.793,新祝園駅
34.7608,135.352,神戸女学院大学
34.7618,135.171,谷上駅
34.7723,134.553,新舞子海水浴場
34.7796,135.472,大塚公園 (豊中市)
34.7807,135.789,狛田駅
34.7813,134.8,高砂市総合運動公園
34.7841,134.722,八家駅
34.7847,135.631,香里園駅
34.7873,135.456,豊中グラウンド
34.7903,135.39,宝塚市立図書館
34.7978,135.429,エアフロントオアシス下河原
34.7993,135.246,有馬温泉駅
34.7997,134.982,三木駅 (神戸電鉄)
34.8078,135.403,川西駐屯地
34.8087,134.971,大村駅 (兵庫県)
34.8098,135.495,千里中央駅
34.8106,135.495,豊中市立千里図書館
34.8153,135.58,茨木ショッピングタウン
34.8158,134.687,姫路市消防局
34.8168,135.461,桜井駅 (大阪府)
34.8196,134.932,市場駅 (JR西日本)
34.82,134.681,手柄駅
34.8205,134.95,樫山駅
34.8215,135.222,岡場駅
34.8288,134.69,山陽姫路駅
34.8355,135.545,郡山宿本陣
34.8434,134.651,グローリー (企業)
34.8517,135.618,高槻駅
34.8564,135.631,安満遺跡
34.8577,135.7,八幡市立八幡第四小学校
34.8599,134.702,姫路駐屯地
34.8601,135.445,久安寺 (池田市)
34.8603,135.58,高槻市立阿武山図書館
34.8796,135.702,松花堂
34.8922,135.68,山崎駅 (京都府)
34.9142,135.735,京都市横大路運動公園
34.9568,135.77,藤森駅
34.9699,135.942,びわこ文化公園
34.9709,135.943,滋賀県立図書館
34.9731,135.906,瀬田の唐橋
34.9742,135.951,滋賀医科大学
34.9746,135.92,近江国庁跡
34.9881,135.78,京都女子大学
34.9941,135.854,大谷駅 (滋賀県)
34.9958,135.768,五条大橋
34.9971,135.773,六波羅蜜寺
34.9994,135.807,本圀寺
34.2283,135.168,神田病院
34.3974,135.594,天見温泉
34.4368,135.57,フォレスト三日市
34.4432,135.744,巨勢山古墳群
34.4511,135.573,河内長野駅
34.4593,135.374,岸和田市立図書館
34.4771,135.402,岸和田盈進会病院
34.4833,135.383,忠岡町
34.492,135.461,信太山演習場
34.5374,135.641,観音塚古墳 (羽曳野市)
34.5588,135.488,収塚古墳
34.5654,135.655,柏原市立国分東小学校
34.5714,135.615,鍋塚古墳
34.6016,135.739,法隆寺駅
34.6082,135.552,イオン喜連瓜破ショッピングセンター
34.6123,135.518,長居公園
34.6215,135.533,駒川中野駅
34.6262,135.531,今川駅 (大阪府)
34.6282,135.526,田辺駅
34.6294,135.808,奈良交通奈良営業所
34.6307,135.552,平野駅 (JR西日本)
34.6335,135.034,舞子駅
34.6337,135.083,山陽塩屋駅
34.6346,135.495,大阪市立西成図書館
34.6371,135.663,十三塚 (平群町)
34.6432,135.984,題目立
34.6444,135.497,花園町駅
34.6463,135.581,彌刀神社
34.6464,135.116,須磨寺駅
34.6479,135.523,寺田町駅
34.6481,135.79,郡山駅 (奈良県)
34.6487,134.993,明石駅
34.6498,135.122,月見山駅
34.65,135.001,月照寺 (明石市)
34.6508,135.802,イオンモール大和郡山
34.6513,135.135,鷹取駅
34.6521,135.783,やまと郡山城ホール
34.6526,134.972,明石朝鮮初級学校
34.653,135.555,北巽駅
34.6553,135.513,大阪府立特許情報センター
34.6562,135.511,泰聖寺
34.6566,135.469,泉尾公園
34.6583,135.513,夕陽丘
34.6585,135.514,四天王寺前夕陽ヶ丘駅
34.6592,135.489,芦原橋駅
34.66,135.537,大阪朝鮮第四初級学校
34.6618,135.502,なんばパークス
34.6641,135.563,布施駅
34.6646,135.217,南公園駅
34.6648,135.52,新歌舞伎座 (大阪)
34.6661,135.22,中埠頭車両基地
34.6669,134.961,西明石駅
34.6671,135.499,大阪難波駅
34.6675,135.481,大正橋 (大阪市)
34.6676,135.21,神戸学院大学附属高等学校
34.6682,135.503,TORII HALL
34.6684,135.165,兵庫駅
34.6686,135.501,道頓堀
34.6716,135.508,大阪市立島之内図書館
34.672,135.847,西勝寺 (奈良市)
34.6727,135.493,堀江 (大阪市)
34.6731,135.152,兵庫県立兵庫高等学校
34.6737,135.514,空堀商店街
34.6738,135.831,井上神社
34.6748,135.508,おおさか維新の会
34.675,135.5,心斎橋駅
34.6752,135.497,長堀バス駐車場
34.6753,135.487,西長堀駅
34.6755,135.846,南都鏡神社
34.6767,135.504,南船場
34.6768,135.205,野添北公園
34.6776,135.827,細川家住宅 (奈良市)
34.6782,135.827,十念寺 (奈良市)
34.6785,135.679,生駒山
34.6791,135.557,深江橋駅
34.6793,135.831,坂本家住宅主屋 (奈良市)
34.6795,135.178,神戸駅 (兵庫県)
34.6797,135.831,猿田彦神社 (奈良市)
34.6798,134.936,イオン明石ショッピングセンター
34.6802,135.849,春日若宮おん祭
34.6808,135.545,緑橋駅
34.6814,135.202,ポートターミナル駅
34.6817,135.15,長田駅 (神戸電鉄)
34.6819,135.83,采女神社
34.6827,135.531,大阪城音楽堂
34.6832,135.512,内本町バスセンター
34.6838,135.802,平城京左京三条二坊宮跡庭園
34.6851,135.831,奈良家庭裁判所
34.6853,135.168,福原京
34.6855,135.812,新大宮駅
34.6879,135.041,伊川谷駅
34.6883,135.828,奈良女子大学
34.6889,135.835,八阪神社 (奈良市)
34.6898,135.504,高麗橋
34.6904,135.836,子規の庭
34.6911,135.854,鶯塚古墳
34.6915,135.473,大阪市立福島図書館
34.6919,135.529,大阪ビジネスパーク
34.692,135.711,東生駒信号場
34.6932,135.698,生駒駅
34.6935,135.195,三宮
34.6937,135.503,大阪府立中之島図書館
34.6941,135.19,チキンジョージ
34.6943,135.784,サンワシティ西大寺
34.6945,135.49,大阪区検察庁
34.6949,135.525,藤田美術館
34.6956,135.499,新ダイビル
34.6958,135.504,大阪簡易裁判所
34.696,135.496,堂島グランドビル
34.6962,135.521,桜の通り抜け (大阪造幣局)
34.6964,135.465,淀川駅
34.6971,135.487,福島駅 (JR西日本)
34.6975,135.181,愛の鍵モニュメント
34.6977,135.511,南森町駅
34.6981,135.761,菖蒲池駅
34.6982,135.501,梅田新道
34.6999,135.52,大阪アメニティパーク
34.7003,135.501,曾根崎
34.7005,135.76,近鉄あやめ池遊園地
34.7009,135.528,大阪市立都島図書館
34.7012,135.191,旧ドレウェル邸
34.7024,135.779,奈良競輪場
34.7041,135.218,岩屋駅 (兵庫県)
34.7042,135.213,神戸市立神戸工科高等学校
34.7044,135.834,奈良豆比古神社
34.7067,135.196,新神戸駅
34.7099,135.273,浜福鶴吟醸工房
34.7106,135.511,天神橋筋六丁目駅
34.7108,135.58,鶴見緑地駅
34.711,135.497,中津駅 (大阪市営地下鉄)
34.7125,135.547,関目駅
34.7157,135.478,大阪府立北野高等学校
34.7166,134.868,播磨町駅
34.717,135.238,宇仁菅書店
34.7195,135.017,西神中央駅
34.7196,135.552,森小路駅
34.7204,135.362,甲子園歴史館
34.7211,135.717,白庭台駅
34.7226,135.789,サンタウン高の原
34.7238,135.549,千林大宮駅
34.7241,135.724,奈良交通北大和営業所
34.7247,135.953,柳生の徳政碑文
34.7258,135.79,イオンモール高の原
34.7264,135.141,鈴蘭台西口駅
34.727,135.357,久寿川駅
34.7275,135.454,加島駅
34.7281,135.304,芦屋駅 (阪神)
34.7324,135.649,四條畷神社
34.7332,135.525,淀川橋梁 (城東貨物線)
34.7335,135.5,新大阪駅
34.7367,134.845,加古川市立別府中学校
34.7408,135.291,会下山遺跡
34.7472,135.775,けいはんな記念公園
34.7484,135.299,芦屋市立芦屋高等学校
34.7485,135.54,北大阪朝鮮初中級学校
34.7519,134.803,高砂駅 (兵庫県)
34.7527,135.87,加茂駅 (京都府)
34.7628,135.526,イオン吹田店
34.7699,135.441,田能遺跡
34.7806,135.422,伊丹駅 (JR西日本)
34.7812,135.424,イオンモール伊丹
34.784,135.416,伊丹市立図書館
34.7844,135.697,関西創価中学校・高等学校
34.7863,134.669,兵庫県道540号飾磨港線
34.7868,134.707,白浜の宮駅
34.7872,135.119,帝釈山 (兵庫県)
34.7874,134.827,加古川市立東神吉南小学校
34.7911,135.659,京阪バス香里団地営業所
34.7977,135.35,逆瀬川駅
34.8079,135.345,宝塚バウホール
34.8109,134.677,亀山駅 (兵庫県)
34.8157,135.647,ビオルネ
34.8167,135.374,中山寺駅
34.8216,135.426,サンシティ池田
34.8268,134.691,姫路駅
34.8356,135.39,宝塚市立図書館
34.8563,135.223,道場南口駅
34.858,135.615,高槻市立天神山図書館
34.86,135.085,口吉川町吉祥寺
34.8602,135.192,神戸三田プレミアム・アウトレット
34.8696,135.804,京都府立山城総合運動公園
34.878,135.219,三田市立図書館
34.8812,135.664,桜井駅跡
34.9524,134.47,西栗栖駅
34.9631,135.708,イオンモール京都桂川
34.9668,135.771,稲荷駅
34.9732,135.77,鳥羽街道駅
34.9745,135.771,遣迎院 (京都市東山区)
34.9773,135.178,兵庫県道310号上本荘藍本線
34.992,135.752,西本願寺
34.994,135.764,長講堂
34.9954,135.742,丹波口駅
34.9985,135.775,六道珍皇寺
34.9995,135.76,平等寺 (京都市下京区)
34.9999,135.782,霊山観音
33.7269,135.714,大塔山
34.0703,134.549,旧高原ビル
34.071,134.557,徳島家庭裁判所
34.0759,134.516,徳島大学
34.1284,134.554,北島チューリップ公園
34.2145,135.168,六三園
34.2281,134.588,小鳴門海峡
34.2756,135.149,イオンモール和歌山
34.3447,135.489,文蔵の滝
34.3945,135.316,蟻通神社 (泉佐野市)
34.4117,135.325,九十九王子 (泉佐野市)
34.4123,135.3,りんくうタウン
34.4337,135.556,河内長野市立南花台中学校
34.4509,135.456,桃山学院大学
34.4594,135.412,久米田寺
34.4822,135.813,向原寺
34.4834,135.534,プール学院大学短期大学部
34.4914,135.827,橿原市昆虫館
34.5071,135.787,今井町
34.5311,135.643,奈良県立富雄高等学校
34.5629,135.629,安福寺 (柏原市)
34.5655,135.517,堺市立北図書館
34.5672,135.486,丸保山古墳
34.5807,135.462,大浜公園 (堺市)
34.5817,135.469,堺駅
34.5981,135.608,八尾駐屯地
34.6087,135.494,住吉行宮
34.6121,135.621,八尾市立図書館
34.6175,135.532,駒川商店街
34.6206,135.528,大阪市立東住吉図書館
34.6208,135.588,竜華操車場
34.6213,135.479,北加賀屋駅
34.6216,135.515,西田辺駅
34.628,135.621,八尾市立図書館
34.6292,135.495,岸里玉出駅
34.6295,135.054,山陽垂水駅
34.6344,135.494,岸里駅
34.6379,135.1,須磨浦公園駅
34.6404,135.645,大阪経済法科大学
34.6406,135.51,大阪市立阿倍野図書館
34.6449,135.05,兵庫県立星陵高等学校
34.6456,135.514,大阪阿部野橋駅
34.6469,135.548,生野朝鮮初級学校
34.6485,135.504,酒梅組
34.6501,135.505,フェスティバルゲート
34.6528,135.187,和田岬
34.6534,135.22,京 (スーパーコンピュータ)
34.6546,135.516,聖霊会の舞楽
34.6551,135.128,東須磨駅
34.6554,135.518,四天王寺八角亭
34.6564,135.885,奈良県ヘリポート
34.6567,134.994,兵庫県立明石公園
34.6569,135.175,和田岬駅
34.6581,135.155,西神戸朝鮮初級学校
34.6619,135.518,大阪国際交流センター
34.6624,135.005,赤羽神社
34.6642,135.395,舞洲スポーツアイランド
34.6644,135.561,布施ラインシネマ
34.6649,135.504,吉本興業
34.6659,135.52,新歌舞伎座 (大阪)
34.6662,135.519,上本町
34.6664,135.495,大阪シティエアターミナル
34.6666,135.495,湊町 (大阪市)
34.6673,135.152,高速長田駅
34.6687,135.544,今里駅 (大阪市営地下鉄)
34.6689,135.514,高津宮
34.6694,135.217,中埠頭駅
34.67,135.651,枚岡神社
34.6717,135.847,宅春日神社
34.6725,135.829,飛鳥神社
34.6728,135.402,舞洲ヘリポート
34.6739,135.486,大阪市立中央図書館
34.6744,135.516,谷町
34.6746,135.829,称念寺 (奈良市)
34.6756,135.545,中大阪朝鮮初級学校
34.6783,135.837,天神社 (奈良市高畑町)
34.6786,135.605,荒本駅
34.6789,135.836,瑜伽神社 (奈良市)
34.6803,135.817,なら100年会館
34.6805,135.536,大阪府立成人病センター
34.6815,135.057,学園都市駅
34.6821,135.829,手力雄神社 (奈良市)
34.6823,134.939,大久保駅 (兵庫県)
34.6825,135.839,奈良国立博物館仏教美術資料研究センター
34.6833,135.5,大阪企業家ミュージアム
34.684,135.143,丸山断層
34.6842,135.527,豊國神社 (大阪市)
34.6856,135.843,奈良公園
34.6861,135.182,花隈駅
34.6867,135.201,神戸震災復興記念公園
34.6873,135.168,神戸家庭裁判所
34.6875,135.511,カプコン
34.6877,135.518,大手前
34.6881,135.658,孔舎衛坂駅
34.6884,135.506,道修町
34.6887,135.844,東大寺法華堂
34.6894,135.53,大阪城ホール
34.6896,135.191,旧居留地・大丸前駅
34.6902,135.517,天満橋駅
34.6905,135.487,リーガロイヤルホテル
34.6907,135.516,八軒家船着場
34.6909,135.723,栗東寺
34.6912,135.503,適塾
34.6917,135.501,大阪ビル (東京建物)
34.6921,135.53,大阪ビジネスパーク駅
34.6923,135.501,淀屋橋駅
34.693,135.506,中之島公園
34.6933,135.492,ダイビル (建築物)
34.6938,135.783,大和西大寺駅
34.6947,135.191,生田神社
34.6954,135.473,海老江駅
34.6968,135.521,造幣局 (日本)
34.6972,135.181,ヴィーナスブリッジ
34.6979,135.506,西天満
34.6983,135.497,北新地
34.6985,135.833,奈良少年刑務所
34.6988,135.747,奈良女子大学附属小学校
34.6994,135.807,航空自衛隊幹部候補生学校
34.7001,135.791,佐紀瓢箪山古墳
34.701,135.5,東梅田駅
34.7014,135.448,大阪福島朝鮮初級学校
34.7028,135.495,ルクア1100
34.703,135.793,塩塚古墳
34.7032,135.545,大阪市立城東図書館
34.7034,135.497,ルクア
34.7036,135.573,横堤駅
34.7038,135.511,扇町駅 (大阪府)
34.7045,135.458,姫島駅
34.7047,135.51,キッズプラザ大阪
34.7049,135.512,天満駅
34.7051,135.215,神戸朝鮮初中級学校
34.7053,135.507,北野病院
34.7065,135.697,阪奈中央病院
34.7072,135.543,野江駅
34.7074,135.495,JR西日本本社ビル
34.7076,135.514,東洋ショー劇場
34.7078,135.231,大石駅
34.708,135.211,上筒井駅
34.7097,135.493,中津駅 (阪急)
34.71,135.747,松伯美術館
34.7111,135.318,ライフガーデン潮芦屋
34.7123,135.445,千船駅
34.7126,135.205,神戸龍谷中学校・高等学校
34.7134,135.25,石屋川駅
34.7136,135.24,灘温泉
34.7158,135.508,大阪市立北図書館
34.7161,135.514,長柄八幡宮
34.7167,134.867,兵庫県立考古博物館
34.7174,135.363,ららぽーと甲子園
34.718,135.563,城北朝鮮初級学校
34.7182,135.521,淀川神社
34.7184,135.383,武庫川駅
34.7192,135.378,武庫川信号場
34.7197,135.483,十三 (大阪市)
34.72,135.817,ガーデンモール木津川
34.7202,135.886,岩船寺
34.7239,135.363,甲子園駅
34.7265,135.752,学研奈良登美ヶ丘駅
34.7267,135.276,摂津本山駅
34.7271,134.843,加古川市立別府小学校
34.7273,135.23,神戸松蔭女子学院大学
34.7295,135.421,クロスボー
34.7306,135.292,甲南山手駅
34.7312,135.423,尼崎市記念公園
34.7314,135.555,太子橋今市駅
34.7333,135.767,私のしごと館
34.734,135.52,大阪市立東淀川図書館
34.7342,135.307,芦屋駅 (JR西日本)
34.7357,135.335,西宮神社
34.7359,135.825,木津駅 (京都府)
34.7374,135.576,西三荘駅
34.7388,135.348,西宮駅 (JR西日本)
34.7467,134.881,兵庫大学
34.7492,135.538,雪鯨橋
34.7502,135.422,兵庫県立尼崎青少年創造劇場
34.7609,135.33,甲陽園駅
34.7616,135.764,祝園分屯地
34.7629,135.479,服部住吉神社
34.764,135.621,寝屋川市駅
34.7642,135.171,兵庫県立光風病院
34.7654,134.831,加古川市立加古川小学校
34.7664,135.611,京阪バス寝屋川営業所
34.7671,135.783,武内神社
34.7697,135.449,原田処理場
34.7721,135.022,ときわ病院 (兵庫県)
34.7739,135.444,スカイランドHARADA
34.775,134.463,相生湾
34.7797,135.44,伊丹スカイパーク
34.7842,135.428,伊丹朝鮮初級学校
34.7845,134.812,宝殿駅
34.7907,135.212,唐櫃台駅
34.7909,134.879,神野駅
34.7912,134.829,加古川市立東神吉小学校
34.8051,135.435,池田市立北豊島小学校
34.8107,135.528,日本万国博覧会
34.811,135.39,宝塚市立図書館
34.8115,135.47,豊中市立野畑図書館
34.8127,134.676,亀山駅 (国鉄)
34.8159,135.65,近鉄百貨店枚方店
34.8206,135.426,サンシティ池田
34.8208,135.63,京阪バス高槻営業所
34.8217,134.676,手柄山中央公園
34.8219,134.674,姫路市平和資料館
34.8243,134.944,市場駅 (神戸電鉄)
34.8264,134.689,プリエ姫路
34.8266,135.582,茨木市立庄栄図書館
34.8286,135.578,JR総持寺駅
34.8382,135.556,アル・プラザ茨木
34.8418,135.564,耳原古墳
34.8432,134.934,小野駅 (兵庫県)
34.8569,134.91,粟生駅
34.8575,135.086,口吉川町槇
34.8578,135.603,笠森稲荷
34.881,135.7,男山山上駅
34.8848,135.202,フローラ88ショッピングセンター
34.8944,135.681,大念寺 (京都府大山崎町)
34.8961,135.81,京阪宇治バス宇治営業所
34.8976,135.609,神峯山寺
34.9098,134.555,兵庫県道505号新宮林田線
34.9143,135.806,萬福寺
34.933,135.878,正法寺 (大津市)
34.9385,135.675,光明寺 (長岡京市)
34.9435,135.703,長岡京
34.95,135.744,鳥羽離宮
34.9525,135.755,安楽寿院
34.9629,135.776,宝塔寺
34.9643,135.767,龍谷大学
34.9697,135.756,任天堂企画開発本部
34.97,135.761,勧進橋児童公園
34.9733,135.952,滋賀医科大学医学部附属病院
34.9743,135.664,京都市立芸術大学
34.9771,135.78,雲龍院
34.9838,135.755,PHP研究所
34.9853,135.741,京都貨物駅
34.9859,135.76,京都劇場
34.9879,135.772,三十三間堂
34.9904,135.776,妙法院
34.9959,135.768,北木石
34.9972,135.734,京都看護大学
34.9989,135.889,滋賀朝鮮初級学校
34.0701,134.502,徳島県立城西高等学校
34.4359,135.243,関西空港駅
34.5975,135.843,天理大学附属天理参考館
34.6204,135.486,大阪市立住吉市民病院
34.6692,135.212,神戸市立港島小学校
34.6844,135.827,近鉄奈良駅
34.6859,135.184,みなと元町駅
34.6951,135.785,近鉄百貨店奈良店
34.6996,135.496,西梅田駅
34.7026,135.226,兵庫県道491号摩耶埠頭線
34.7163,135.423,阪神電気鉄道尼崎工場
34.7255,135.545,大宮神社 (大阪市旭区)
34.7469,135.079,見津信号所
34.7987,134.639,夢前川駅
34.8338,134.918,小野町駅
34.8719,135.697,京阪バス男山営業所
34.9618,135.808,勧修寺
34.0915,134.546,徳島県立城ノ内中学校・高等学校
34.1246,134.545,北島町立北島中学校
34.2278,135.176,和歌山地方検察庁
34.2364,135.167,和歌山市駅
34.3971,135.395,孝恩寺
34.4125,135.295,りんくう公園
34.4339,134.911,津名港
34.4356,135.448,ららぽーと和泉
34.4797,135.816,甘樫丘
34.4836,135.816,雷丘
34.4911,135.511,大蓮公園
34.5003,135.603,富田林寺内町
34.5275,135.803,奈良県運転免許センター
34.5467,135.482,文珠塚古墳
34.5711,135.47,少林寺 (堺市)
34.6064,135.475,大阪市立住之江図書館
34.6114,135.492,住吉の御田植
34.621,135.549,平野駅 (大阪市営地下鉄)
34.6244,135.559,大阪市立平野図書館
34.6338,135.645,大阪経済法科大学
34.6482,135.119,松風村雨堂
34.6531,135.54,大阪市立生野図書館
34.6548,135.128,神戸市立東須磨小学校
34.6589,135.207,神戸ヘリポート
34.6597,135.506,日本橋 (大阪市)
34.6612,135.499,日本工芸館
34.6621,135.64,瓢箪山駅 (大阪府)
34.6741,135.497,四ツ橋駅
34.6799,135.831,奈良市立図書館
34.6835,135.114,車大歳神社の翁舞
34.6899,135.513,大阪産業労働資料館
34.7006,135.494,梅三小路
34.7094,135.29,東神戸大橋
34.7171,135.281,青木駅
34.7227,135.291,深江駅 (兵庫県)
34.7321,134.836,加古川市立別府西小学校
34.7325,135.118,藍那駅
34.7385,135.574,パナソニック
34.743,135.603,大和田駅 (大阪府)
34.7516,135.393,武庫之荘駅
34.7678,134.839,加古川駅
34.77,135.564,鳥飼信号場
34.7755,134.773,山陽曽根駅
34.779,134.863,日岡山公園
34.7869,135.676,交野市駅
34.8053,135.535,EXPOCITY
34.8237,135.436,池田市立図書館
34.8269,135.566,茨木市立中央図書館
34.8487,135.558,追手門学院大学
34.8781,135.704,八幡市立図書館
34.8845,135.7,八幡市駅
34.8958,135.679,宝積寺
34.9061,135.81,隼上り瓦窯跡
34.9299,134.833,加西市立図書館
34.9382,135.644,善峯寺
34.9645,135.71,桂川駅 (京都府)
34.9808,135.778,戒光寺
34.9945,135.554,京都学園大学
34.9986,135.779,法観寺
34.9996,135.771,東山女子技芸学校
33.7266,135.382,田辺市立歴史民俗資料館
33.925,135.831,玉置神社
34.0391,134.527,徳島県文化の森総合公園
34.0806,134.539,佐古駅
34.1189,134.544,北島町立北島南小学校
34.1258,134.546,北島町生涯学習センター
34.3073,135.557,葛城館
34.3444,134.895,旧鐘紡洲本第3工場汽缶室
34.3947,135.863,奈良県立吉野工業高等学校
34.4512,135.805,キトラ古墳
34.48,135.932,松山 (宇陀市)
34.5625,135.777,国保中央病院
34.5669,135.72,アピタ西大和店
34.574,135.593,イオンモール藤井寺
34.5927,135.508,大阪市立大学
34.5978,135.852,石上神宮
34.6046,135.713,イオンいかるが店
34.6049,135.758,安堵町歴史民俗資料館
34.6067,135.836,天理医療大学
34.6241,135.491,玉出駅
34.6297,135.604,近鉄八尾駅
34.6341,135.034,舞子公園駅
34.6357,135.786,郡山警察署 (奈良県)
34.6419,135.423,大阪港
34.6466,135.509,大阪市立大学医学部附属病院
34.6472,135.127,須磨海浜公園駅
34.6494,134.997,神戸大学附属小学校
34.6522,135.506,新世界 (大阪)
34.6543,135.566,東大阪朝鮮初級学校
34.6586,135.528,桃谷駅
34.6609,135.651,東大阪市立郷土博物館
34.6615,135.556,小路駅
34.6637,134.947,藤江駅
34.6656,135.521,大阪上本町駅
34.6678,135.518,ホルベイン工業
34.6697,135.504,宗右衛門町
34.6703,135.17,福厳寺 (神戸市)
34.6712,135.162,大開駅
34.6733,135.834,崇道天皇社
34.6759,135.805,奈良県立図書情報館
34.6828,135.522,大阪放送会館
34.687,135.195,日本真珠会館
34.689,135.84,東大寺大仏殿
34.6965,135.513,天満天神繁昌亭
34.699,135.493,オオサカガーデンシティ
34.7016,135.785,平城駅
34.7055,135.695,長福寺 (生駒市)
34.7069,135.505,中崎町駅
34.7082,135.24,サザンモール六甲B612
34.7277,135.557,滝井駅
34.7303,135.413,兵庫県立尼崎総合医療センター
34.7354,135.565,守口市駅
34.7382,135.583,門真市駅
34.7543,135.786,稲植神社
34.7566,135.039,押部谷駅
34.76,135.792,祝園駅
34.7694,134.859,兵庫県立加古川北高等学校
34.7703,135.508,関西大学
34.7741,135.685,河内森駅
34.7752,135.357,仁川駅
34.7758,135.667,京阪バス交野営業所
34.7787,134.857,日岡駅
34.7793,134.758,大塩駅
34.7803,135.106,丹生山
34.79,135.356,兵庫県立川西高等学校宝塚良元校
34.7904,134.6,平松駅
34.7964,134.617,山陽天満駅
34.7994,134.898,加古川市立上荘小学校
34.7998,134.675,飾磨駅
34.8092,135.484,豊中不動尊
34.8095,135.532,万博記念公園
34.8099,135.496,千里阪急
34.8112,135.639,枚方公園駅
34.8129,135.53,国立民族学博物館
34.8144,134.584,網干駅
34.8154,135.562,茨木駅
34.8197,135.369,中山観音駅
34.824,134.734,山之越古墳
34.8352,135.595,高槻市立小寺池図書館
34.8463,135.779,城陽警察署
34.8604,135.784,正道官衙遺跡
34.8617,134.556,本竜野駅
34.8904,135.801,宇治駅 (JR西日本)
34.912,135.797,宇治駐屯地
34.9302,135.76,寺田屋事件
34.9327,135.764,伏見桃山駅
34.9342,135.815,法界寺
34.9432,135.701,南真経寺
34.9604,135.906,石山寺
34.9706,135.761,京都朝鮮第一初級学校
34.9728,135.766,鴨川東出入口
34.9876,135.773,法住寺 (京都市)
34.9882,135.759,京都ヨドバシ
34.9921,135.772,方広寺
34.9937,135.794,京都大学大学院理学研究科附属花山天文台
34.9942,135.856,逢坂関
34.9955,135.874,滋賀短期大学
34.9991,135.88,竜が丘俳人墓地
33.6659,135.335,三段壁洞窟
33.6663,135.357,白浜警察署
34.0045,134.587,徳島県立小松島高等学校
34.0049,134.594,小松島競輪場
34.0697,134.55,新町川水際公園
34.0785,134.519,シネアルテ
34.0802,135.532,日光神社
34.1185,134.531,吉成駅
34.1261,134.546,北島町立図書館・創世ホール
34.1385,135.516,花園の御田舞
34.1418,134.581,樫野倶楽部
34.201,135.204,竈山神社
34.2029,134.606,鳴門教育大学
34.4119,135.302,市立泉佐野病院
34.4261,134.906,イオン淡路店
34.4711,135.812,亀石
34.4916,135.545,帝塚山学院大学
34.5098,135.775,高取川
34.5352,135.443,東羽衣駅
34.6012,135.621,八尾市立図書館
34.6083,135.003,徳島藩松帆台場跡
34.6089,135.566,出戸駅
34.6117,135.421,かもめ大橋
34.6167,135.067,吉備津丸
34.6171,135.533,針中野駅
34.6253,135.48,南大阪朝鮮初級学校
34.6257,135.521,南田辺駅
34.6348,135.59,久宝寺口駅
34.636,135.518,文の里駅
34.6381,135.524,美章園駅
34.6439,135.017,明石花火大会歩道橋事故
34.6445,135.783,郡山八幡神社 (大和郡山市)
34.6459,135.547,東大阪朝鮮中級学校
34.6475,135.002,人丸前駅
34.6509,135.78,柳沢文庫
34.6577,135.041,多聞寺 (神戸市垂水区)
34.6593,135.433,天保山大橋 (大阪府)
34.6651,135.513,生國魂神社
34.6721,135.83,春日若宮社 (奈良市中辻町)
34.6777,135.827,森家住宅
34.6846,135.852,月日磐
34.6863,135.841,東南院 (奈良市)
34.709,135.538,野江内代駅
34.7102,135.218,王子公園駅
34.7287,135.593,門真運転免許試験場
34.7291,135.276,岡本駅 (兵庫県)
34.7308,135.56,土居駅
34.7328,135.204,摩耶山
34.7336,135.431,あまがさきキューズモール
34.741,135.499,東三国駅
34.7414,135.427,JR福知山線脱線事故
34.7418,134.824,加古川市立尾上小学校
34.7438,134.948,播州葡萄園
34.7539,135.742,東畑神社
34.7552,135.057,栄駅 (兵庫県)
34.7575,135.158,箕谷出入口
34.765,135.026,緑が丘駅 (兵庫県)
34.769,134.845,加古川市立氷丘南小学校
34.7717,135.422,伊丹南口駅
34.7761,135.546,正雀駅
34.7765,135.485,服部緑地
34.7799,135.414,伊丹駅 (阪急)
34.7808,134.861,日岡神社
34.7836,135.14,稚児ヶ墓山
34.7864,135.816,蟹満寺
34.7938,135.449,ルシオーレ
34.796,135.639,関西創価小学校
34.7989,134.665,飾磨駅 (国鉄)
34.8014,135.419,北伊丹駅
34.8027,134.881,加古川市立両荘中学校
34.8042,135.575,茨木市立水尾図書館
34.8088,135.496,千里セルシー
34.8102,134.614,はりま勝原駅
34.8123,135.786,法泉寺 (京田辺市)
34.8186,135.53,阪大病院前駅
34.825,135.41,川西池田駅
34.8272,135.587,慶瑞寺
34.8294,135.909,金胎寺
34.8334,135.672,枚方市立中央図書館
34.8372,135.497,箕面市立萱野東小学校
34.8384,134.564,阿曽ランプ
34.842,135.503,帝釈寺 (箕面市)
34.8571,135.495,八天石蔵
34.8613,135.678,くずはモール
34.8797,135.7,石清水八幡宮
34.8813,134.451,感状山城
34.8928,134.656,書写山
34.8972,134.928,青野ケ原駅
34.9064,135.393,日生中央駅
34.9138,135.766,種智院大学
34.96,135.894,京阪バス大津営業所
34.9684,135.826,京都橘大学
34.9702,135.761,京都朝鮮学校公園占用抗議事件
34.9855,135.758,京都駅
34.9861,135.742,京都鉄道博物館
34.9865,135.746,梅小路公園
34.9885,134.996,比延駅
34.9889,134.971,童子山公園
34.9906,135.748,龍谷大学付属平安中学校・高等学校
34.9961,135.802,御陵駅
33.9205,134.666,フジグラン阿南
34.0731,134.58,徳島市立高等学校
34.0789,135.114,有田警察署 (和歌山県)
34.2285,135.176,和歌山家庭裁判所
34.4113,135.317,泉佐野駅
34.5639,135.74,乙女山古墳
34.6219,135.826,飛鳥未来高等学校
34.6324,135.529,北田辺駅
34.7086,135.499,梅田芸術劇場
34.7148,135.256,御影駅 (阪神)
34.7176,135.519,毛馬橋
34.7283,135.477,大阪市立十三市民病院
34.7317,135.315,打出駅
34.7377,134.872,加古川市立平岡小学校
34.8201,135.684,枚方市立総合スポーツセンター
34.8565,134.643,余部駅
34.8792,134.92,河合西駅
34.0705,134.549,しんまちボードウォーク
34.0726,134.559,徳島県立城東高等学校
34.0741,134.483,府中駅 (徳島県)
34.4151,134.791,高田屋顕彰館・歴史文化資料館
34.4183,134.828,淡路島地震
34.5369,135.951,宇陀警察署
34.5559,135.465,乳岡古墳
34.5983,135.035,兵庫県南部地震
34.6041,135.757,富本憲吉記念館
34.6503,135.577,長瀬駅
34.6762,135.831,御霊神社 (奈良市)
34.6809,135.601,大阪府立中央図書館
34.6925,135.194,神戸マルイ
34.7019,135.495,大阪駅
34.7152,135.546,関目高殿駅
34.7242,135.555,千林駅
34.7259,135.74,登美ヶ丘信号場
34.7933,135.453,国立病院機構刀根山病院
34.8586,135.676,大阪歯科大学
34.9774,135.775,龍吟庵
34.0152,134.583,徳島県立みなと高等学園
34.0736,134.556,旧徳島城表御殿庭園
34.3501,134.877,学校法人柳学園
34.3559,135.721,栄山寺
34.4728,135.808,菖蒲池古墳
34.4749,135.778,桝山古墳
34.4839,135.83,山田寺
34.5019,135.807,藤原京
34.5456,135.509,大阪府立大学
34.5614,135.481,堺市立中央図書館
34.5706,135.469,本伝寺 (堺市)
34.6177,135.517,鶴ケ丘駅
34.6352,135.765,奈良県立片桐高等学校
34.6408,135.398,夢咲トンネル
34.6414,135.414,森ノ宮医療大学
34.6434,135.112,山陽須磨駅
34.6451,135.517,大阪鉄道病院
34.6489,135.474,昭和山
34.6556,135.144,若松公園
34.6626,135.627,東花園駅
34.6707,135.831,椚神社
34.677,135.834,今西家書院
34.7187,135.417,尼崎駅 (阪神)
34.7297,135.268,甲南大学
34.7369,135.338,西宮駅 (阪神)
34.739,135.331,さくら夙川駅
34.7395,135.152,北鈴蘭台駅
34.7433,135.77,国立国会図書館関西館
34.7453,134.798,高砂市立高砂小学校
34.7487,134.821,尾上の松駅
34.757,135.426,三菱電機伊丹製作所
34.7603,135.791,せいかガーデンシティ
34.7611,135.799,常念寺 (京都府精華町)
34.7666,135.347,関西学院中学部・高等部
34.7673,135.686,私市駅
34.7942,135.67,郡津駅
34.8037,135.772,同志社女子大学
34.8046,134.753,姫路貨物駅
34.8056,134.753,ひめじ別所駅
34.821,135.758,酬恩庵
34.8245,135.458,ミヤコ蝶々記念館
34.8289,135.654,御殿山駅
34.8413,134.69,水尾神社 (姫路市)
34.8497,135.921,正寿院 (京都府宇治田原町)
34.855,135.432,光妙寺 (池田市)
34.8581,135.613,慈願寺 (高槻市)
34.8874,135.796,宇治市立宇治中学校
34.8923,135.68,妙喜庵
34.9133,135.689,西山天王山駅
34.9482,135.769,墨染駅
34.9893,135.768,七条駅
34.9974,135.771,あじき路地
33.7271,135.993,新宮郵便局
33.8507,134.596,徳島県立新野高等学校
34.072,134.563,勢玉
34.1089,134.456,吉野川第十堰
34.1948,135.822,和田郵便局 (奈良県)
34.2139,135.153,花王和歌山工場
34.3331,135.956,丹生川上神社上社
34.4362,135.551,奥河内くろまろの郷
34.4597,135.619,下赤坂城
34.4743,135.471,光明池運転免許試験場
34.5461,135.84,纒向遺跡
34.5488,135.6,白髪山古墳
34.5619,135.628,玉手山公園
34.57,135.8,唐古・鍵遺跡
34.5961,135.603,八尾空港
34.6514,135.587,近畿大学
34.6571,135.597,樟蔭東短期大学
34.6631,135.524,聖バルナバ病院
34.7059,135.581,大阪市鶴見緑地球技場
34.7128,135.546,関目成育駅
34.7205,134.889,土山駅
34.7249,135.723,学研北生駒駅
34.7361,135.392,尼崎朝鮮初中級学校
34.7504,134.803,サンモール高砂
34.7546,134.854,加古川市立野口小学校
34.7579,135.534,相川駅
34.7644,135.418,大手前短期大学
34.7744,135.627,イオンモール寝屋川
34.783,134.929,播磨社会復帰促進センター
34.8031,134.651,西飾磨駅
34.8117,135.755,京阪バス京田辺営業所
34.8147,135.569,茨木市立中条図書館
34.8161,135.648,枚方市駅
34.819,134.823,加古川市立志方小学校
34.8298,134.688,大劇会館
34.8376,135.499,箕面市立第四中学校
34.8435,135.665,牧野駅
34.8607,135.619,伊勢寺
34.8635,135.8,京都サンガF.C.東城陽グラウンド
34.9075,135.936,富川磨崖仏
34.9502,135.773,京都教育大学
34.9518,135.82,醍醐寺三宝院庭園
34.9898,135.788,清閑寺
34.9931,135.715,京都市西京極総合運動公園
34.9948,135.785,清水寺
34.9979,135.913,イオンモール草津
34.0746,134.551,徳島駅
34.1412,134.47,徳島県立板野高等学校
34.2178,135.174,和歌山県立陵雲高等学校
34.6247,135.703,生駒郡
34.6536,135.157,苅藻駅
34.751,135.425,塚口駅 (JR西日本)
34.818,135.39,宝塚市立図書館
34.8916,135.655,若山神社
34.9584,135.77,ダイエー藤森店
34.9965,135.781,産寧坂
33.9209,134.658,牛岐城
34.0752,134.554,城山 (徳島市)
34.1178,135.504,杉野原の御田舞
34.1861,134.499,大麻山 (徳島県)
34.4254,135.753,巨勢寺塔跡
34.4772,135.822,奈良県立万葉文化館
34.5536,135.79,西田原本駅
34.5947,135.846,天理大学附属天理図書館
34.63,135.578,久宝寺緑地
34.6328,135.606,アリオ八尾
34.6364,135.484,南津守さくら公園
34.752,135.448,園田駅
34.7856,135.207,神鉄六甲駅
34.862,135.675,樟葉駅
34.9425,134.494,千本駅
34.9924,135.719,西京極
33.725,135.389,和歌山県立南紀高等学校
34.0541,134.558,徳島文理大学
34.2003,134.59,小鳴門大橋
34.2337,135.163,和歌山市民図書館
34.4105,135.3,りんくうタウン駅
34.4128,135.716,かもきみの湯
34.4815,135.394,岸和田競輪場
34.5024,135.646,一須賀古墳群
34.5102,135.814,奈良朝鮮初級学校
34.5409,135.444,浜寺公園駅
34.5954,135.433,シャープ堺工場
34.5967,135.949,小治田安萬侶の墓
34.6234,135.552,平野停留場
34.6372,135.229,神戸空港駅
34.6601,135.133,板宿駅
34.723,135.531,おおさか東線
34.7495,135.474,グルメシティ庄内店
34.7823,135.008,志染駅
34.7875,134.664,飾磨港駅
34.808,135.555,宇野辺駅
34.849,135.227,二郎駅
34.8641,134.607,太市駅
34.8838,135.703,飛行神社
34.9068,135.721,淀駅
34.9735,135.914,建部大社
34.9869,135.743,梅小路蒸気機関車館
34.2289,135.734,天辻峠
34.2748,135.068,加太淡嶋温泉
34.3436,134.738,慶野松原
34.3551,134.757,五色台運動公園
34.4754,135.823,酒船石遺跡
34.5031,135.644,大阪府立近つ飛鳥風土記の丘
34.5186,135.64,叡福寺
34.5313,135.906,茶房長谷路
34.5631,135.626,柏原市立玉手小学校
34.5809,135.481,妙国寺のソテツ
34.5827,135.494,大阪医療刑務所
34.6017,135.613,平川商事
34.6283,135.5,阿部野神社
34.74,135.591,古川橋駅
34.7459,135.357,西宮北口駅
34.7656,135.863,恭仁京
34.7882,134.989,兵庫県立三木山森林公園
34.7979,135.63,光善寺駅
34.8555,135.619,昼神車塚古墳
34.8658,135.491,勝尾寺
34.8784,135.775,大久保駐屯地
34.9045,134.907,青野原演習場
34.9202,134.935,社町駅
34.0712,134.555,徳島ホール
34.2649,135.374,パナソニックエナジー社和歌山工場
34.3229,134.834,南あわじ市・洲本市小中学校組合立広田中学校
34.5267,135.627,通法寺
34.5819,135.516,北花田駅
34.7114,135.245,阪神電気鉄道石屋川車庫
34.7422,135.328,夙川駅
34.7848,135.382,イオンモール伊丹昆陽
34.8424,135.766,京都府立西城陽高等学校
34.8591,135.644,イオン高槻
34.8627,135.633,磐手杜神社
34.9053,135.718,與杼神社
34.9779,134.977,新西脇駅
33.7257,135.99,浮島の森
34.0793,134.519,蔵本駅
34.3751,135.403,奥水間温泉
34.7914,135.442,大阪空港駅
34.8907,135.556,法林寺 (茨木市)
34.9305,134.828,イオンモール加西北条
34.962,135.676,ラクセーヌ
34.1013,135.763,谷瀬の吊り橋
34.1249,134.55,北島町立北島小学校
34.1892,135.182,紀三井寺競馬場
34.2618,135.176,大谷古墳
34.3833,134.833,淡路島
34.4734,135.821,飛鳥浄御原宮
34.4762,135.803,植山古墳
34.4824,135.574,錦織公園
34.5321,135.459,鳳駅
34.5343,135.491,堺市立中図書館
34.6423,135.113,須磨駅
34.7345,135.273,岡本梅林公園
34.7556,135.618,寝屋川信号所
34.7619,135.418,グンゼタウンセンター つかしん
34.7631,135.328,アンネのバラの教会
34.7681,135.801,祝園神社
34.7814,134.971,三木ホースランドパーク
34.8018,135.664,村野駅
34.8801,135.884,猿丸神社
34.8963,135.812,京都翔英高等学校
34.9473,135.699,京都向日町競輪場
34.9688,135.769,伏見稲荷駅
34.9799,135.753,東寺駅
34.0775,134.506,鮎喰駅
34.1529,134.529,池谷駅
34.1938,135.152,養翠園
34.3523,135.372,大木地区 (泉佐野市)
34.4499,135.574,長野温泉
34.5643,135.527,大泉緑地
34.6194,135.503,万代池
34.6224,135.764,大和小泉駅
34.7138,135.836,きっづ光科学館ふぉとん
34.7474,135.611,萱島駅
34.789,135.353,小林駅 (兵庫県)
34.7967,135.221,有馬口駅
34.8254,134.522,竜野駅
34.8648,135.779,久津川車塚古墳
34.9123,134.981,兵庫教育大学附属中学校
34.9332,135.755,松本酒造
34.9508,135.765,京都教育大学附属高等学校
34.959,135.773,京都聖母学院小学校
34.991,135.836,髭茶屋追分
33.9216,134.664,徳島県立富岡東中学校・高等学校
34.1928,134.613,撫養橋
34.3961,135.286,りんくうポート南
34.4244,135.712,極楽寺ヒビキ遺跡
34.4657,135.798,岩屋山古墳
34.5988,135.513,我孫子駅 (大阪府)
34.7923,134.693,妻鹿駅
34.8276,135.413,川西能勢口駅
34.3449,134.892,イオン洲本ショッピングセンター
34.395,135.85,大師山寺
34.9607,135.652,勝持寺
34.1581,135.194,温山荘園
34.1668,135.192,紀三井寺公園
34.1881,134.624,土佐泊城
34.2607,135.309,ロッシュコート
34.4567,135.803,檜隈寺
34.5674,135.515,新金岡駅
34.5729,135.638,高井田横穴墓群
34.7442,135.088,木津駅 (兵庫県)
34.7528,135.416,塚口駅 (阪急)
34.7706,134.848,加古川市立氷丘小学校
34.8169,134.681,灘菊酒造
34.8323,135.237,公智神社
34.8769,135.22,横山駅 (兵庫県)
34.8879,134.558,東觜崎駅
34.9632,134.692,夢前バスストップ
34.2772,134.989,紀淡海峡
34.3061,135.803,丹生川上神社下社
34.3975,135.288,りんくうポート北
34.4474,135.579,河合寺
34.4617,135.738,中井家住宅
34.4803,135.818,飛鳥水落遺跡
34.5602,135.603,野中古墳
34.5657,135.016,国営明石海峡公園
34.5743,135.606,藤井寺市立図書館
34.6052,135.487,住ノ江駅
34.607,135.671,開運橋 (信貴山)
34.6182,135.492,粉浜駅
34.8132,134.645,英賀保駅
34.834,134.697,射楯兵主神社
34.8932,135.808,放生院 (宇治市)
34.9005,135.819,三室戸寺
34.9787,135.773,明暗寺
33.7347,134.54,日和佐八幡神社
34.1234,134.491,観音院 (徳島県藍住町)
34.1868,135.173,不老橋
34.376,135.45,牛滝温泉
34.4715,135.59,初芝富田林中学校・高等学校
34.5006,135.797,かしはら万葉ホール
34.8946,135.806,宇治駅 (京阪)
34.9413,134.956,滝野駅
34.2075,134.609,スクノ海
34.0358,135.183,和歌山県立耐久高等学校
34.0394,134.556,雑賀町 (徳島市)
34.088,134.527,徳島県立徳島中央高等学校
34.2405,135.171,和歌山競輪場
34.4486,135.357,願泉寺 (貝塚市)
34.533,135.463,大阪物療大学
34.5356,135.786,多坐弥志理都比古神社
34.5589,135.792,田原本警察署
34.7213,135.542,大阪市立旭図書館
34.7947,134.907,厄神駅
34.8001,134.989,三木上の丸駅
34.8978,135.676,天王山トンネル
34.9314,135.737,鴨川 (淀川水系)
34.9487,134.962,滝駅 (兵庫県)
34.9825,135.787,在阪民放ラジオ局京都中継局
34.984,135.723,堀場製作所
34.0527,134.558,徳島文理大学短期大学部
34.5715,135.594,藤井寺駅
34.5998,135.53,矢田事件
34.889,135.8,宇治警察署
34.0761,134.518,徳島大学病院
34.1164,134.495,千光寺 (徳島県藍住町)
34.2125,135.586,高野山
34.2758,135.436,旧名手宿本陣
34.4342,135.233,関西国際空港
34.4603,135.732,御所警察署
34.7585,134.821,コスモライフ
34.8991,135.783,宇治徳洲会病院
34.9811,135.771,万寿寺
33.919,134.65,徳島県立富岡西高等学校
34.0109,134.587,小松島ステーションパーク
34.0467,135.162,施無畏寺
34.1539,135.177,和歌山マリーナシティ
34.2014,135.204,竈山墓
34.2321,135.191,和歌山駅
34.3888,135.31,日根神社
34.4265,135.594,延命寺 (河内長野市)
34.4578,135.609,富田林市農業公園
34.5039,135.792,奈良県立医科大学附属病院
34.5218,135.433,高石駅
34.5233,135.542,堺市立東図書館
34.5278,135.462,堺市立西図書館
34.5375,135.475,家原寺
34.5685,135.589,大阪女子短期大学
34.6309,135.072,滝の茶屋駅
34.7724,135.553,摂津市民図書館
34.8357,134.695,兵庫縣姫路護國神社
34.8502,134.92,葉多駅
34.9569,135.656,正法寺 (京都市西京区)
34.9669,135.773,伏見稲荷大社
34.5835,135.459,旧堺燈台
33.8865,135.889,木津呂
34.1652,134.602,鳴門市立鳴門工業高等学校
34.3045,135.536,かつらぎ警察署
34.4135,135.337,泉州航空神社
34.5543,135.724,牧野古墳
34.5931,135.687,龍田大社
34.6025,135.574,長原駅 (大阪府)
34.8221,135.61,高槻市立芝生図書館
34.9437,135.706,北真経寺
34.0341,134.463,一宮城 (阿波国)
34.0429,135.182,湯浅警察署
34.3028,135.955,紀伊半島
34.3419,134.903,大浜海岸 (洲本市)
34.3506,135.695,栗山家住宅
34.4369,135.54,河内長野市立西中学校
34.5054,135.763,イオンモール橿原
34.6263,135.621,八尾市立図書館
34.8061,135.216,五社駅
34.9081,135.707,京都府立洛西浄化センター公園
34.1367,134.553,北島町立北島北小学校
34.3533,135.701,五條バスセンター
34.4188,135.921,中竜門郵便局
34.4456,135.549,大阪千代田短期大学
34.4779,135.774,新沢千塚古墳群
34.5293,135.797,ツインゲート橿原
34.547,135.583,四天王寺大学
34.5909,135.825,イオンタウン天理
34.7769,135.862,海住山寺
34.9345,135.791,大善寺 (京都市)
34.971,135.821,京阪バス山科営業所
34.0841,135.125,有田市立箕島中学校
34.1192,134.501,ゆめタウン徳島
34.1265,134.529,徳島県立徳島北高等学校
34.5248,135.459,アリオ鳳
34.539,135.559,堺市立美原図書館
34.6124,135.488,住吉公園
34.6385,135.028,西舞子駅
34.8304,135.426,五月山公園
34.9363,135.689,乙訓寺
34.5517,135.65,大阪教育大学
34.5851,135.515,堺 北花田阪急
34.0371,135.174,湯浅
34.9453,135.953,日本フィンランド学校
33.7277,135.991,ペアシティ新宮店
34.0258,135.173,稲むらの火の館
34.086,134.525,徳島県立徳島科学技術高等学校
34.2344,135.215,和歌山東警察署
34.91,135.719,妙教寺 (京都市伏見区)
34.9527,135.893,滋賀県立大津清陵高等学校
34.9648,135.77,深草駅
34.0446,134.559,マルナカ徳島店
34.8466,135.617,高槻市立中央図書館
34.8817,135.684,橋本駅 (京都府)
34.9547,135.771,西岸寺 (京都市伏見区深草)
34.6093,135.551,喜連瓜破駅
34.2627,135.522,丹生都比売神社
34.4545,135.56,河内長野市立図書館
34.8697,135.604,安岡寺 (高槻市)
33.7297,135.384,闘鶏神社
34.0407,134.525,徳島県立図書館
34.0893,134.531,徳島県立城北高等学校
34.4433,135.368,ユニチカオークタウン貝塚
34.8441,135.699,シネプレックス枚方
34.1211,134.587,大塚ヴェガホール
34.1389,134.531,阿波市場駅
34.1704,134.578,木津城
34.5494,134.938,野島断層
34.1095,134.534,生光学園中学校・高等学校
34.2255,135.173,岡山の時鐘堂
34.495,135.511,堺市立南図書館
34.5755,135.485,堺東駅
33.9226,134.664,阿南市立阿南図書館
33.9315,134.514,徳島県立勝浦高等学校
34.168,134.615,徳島県鳴門総合運動公園
34.2297,134.587,小鳴門新橋
34.5194,135.493,原池公園
34.5564,135.596,ボケ山古墳
34.6143,135.734,法隆寺地域の仏教建造物
34.885,135.568,高槻市萩谷総合運動公園
34.9747,135.934,フォレオ大津一里山
34.5073,135.409,泉州朝鮮初級学校
34.8388,135.469,箕面温泉
34.0019,134.565,小松島市立児安小学校
34.2722,135.153,ふじと台
34.9387,135.765,丹波橋駅
33.7359,135.973,御船島
34.1554,134.507,板東駅
34.1901,135.143,雑賀崎
34.3806,135.557,岩湧寺
34.4156,134.791,ウェルネスパーク五色・高田屋嘉兵衛公園
34.9145,135.698,恵解山古墳
33.7319,135.985,佐藤春夫記念館
33.9253,134.639,徳島県立阿南工業高等学校
34.0124,134.574,堀越寺
34.0639,134.572,南末広町
34.4629,135.823,飛鳥稲淵宮殿跡
34.9017,135.365,イオンモール猪名川
34.1785,134.601,徳島県立鳴門高等学校
34.4921,135.511,堺市立泉北すえむら資料館
34.5778,135.549,松原市文化会館
33.8835,135.899,嶋津の森
33.9512,134.661,阿南市立那賀川図書館
34.0667,134.573,徳島県立徳島東工業高等学校
34.2184,134.626,鳴門の根上りマツ
34.4515,135.572,ノバティながの
34.4973,135.893,粟原寺
34.5156,135.703,葛城市相撲館
34.8666,135.226,神鉄道場駅
34.9172,135.775,京都市立向島中学校
34.9269,135.76,中書島駅
34.2147,135.581,明王院 (高野山)
34.2839,135.31,岩出市立岩出図書館
34.0809,134.554,香蘭高等学校
34.8518,135.625,大阪医科大学
33.672,135.331,千畳敷 (和歌山県)
33.9281,134.673,ショッピングプラザ アピカ
34.3772,135.287,九十九王子 (泉南市)
33.5978,135.925,グリーンピア南紀
34.0548,134.542,徳島県立城南高等学校
33.6622,135.364,南紀白浜空港
34.2088,135.189,和歌山朝鮮初中級学校
34.287,135.742,常覚寺
34.2367,135.138,新日鐵住金和歌山製鐵所
34.4206,135.751,吉野口駅
34.1328,134.606,徳島飛行場
34.587,135.626,柏原市立図書館
34.5416,135.441,浜寺公園
34.1489,134.484,阿波川端駅
34.2214,134.607,ウチノ海
34.346,134.895,洲本市立図書館
34.3903,135.986,丹生川上神社
34.1286,134.528,勝瑞駅
34.2033,135.218,和歌山県立和歌山交通公園
33.7143,135.99,イオン新宮ショッピングセンター
34.4667,135.822,奈良県立万葉文化館
34.0483,134.556,徳島文理中学校・高等学校
34.1118,134.547,フジグラン北島
34.4386,135.566,河内長野市立三日市小学校
34.3842,135.783,町立大淀病院
34.5109,135.632,大阪芸術大学
34.1814,134.619,撫養町弁財天
34.8721,134.69,姫路獨協大学
33.83,135.777,備崎経塚
34.1954,135.183,セントラルシティ和歌山
33.6667,135.373,アドベンチャーワールド
34.2784,135.091,コスモパーク加太
34.0583,134.543,勢見山
33.7386,134.532,美波町立日和佐中学校
34.0053,134.626,小松島航空基地
33.9542,134.624,阿南市立羽ノ浦図書館
34.428,135.579,興禅寺 (河内長野市)
34.1727,135.817,篠原踊
34.921,134.546,播磨新宮駅
34.1592,134.496,板東俘虜収容所
34.3168,135.157,深日駅
33.4782,135.786,串本警察署
33.8513,135.395,紀州備長炭振興館
34.3564,135.871,吉野山
34.0278,135.172,広村堤防
33.7186,135.99,新宮警察署
33.5333,135.917,パイプフィッシュ (潜水艦)
34.2657,135.152,和歌山大学
34.1022,134.553,四国大学
34.1422,134.466,板野駅
34.4844,135.794,橿原神宮前駅
33.6753,135.888,那智四十八滝
33.5397,135.826,高池の虫喰岩
34.2529,135.941,大峯山寺
34.3337,135.958,川上村立図書館
33.8576,134.482,徳島県立那賀高等学校
34.3076,135.584,和歌山県立紀北工業高等学校
34.3237,134.836,南あわじ市・洲本市小中学校組合立広田小学校
33.8978,135.149,ロマンシティ御坊
34.0918,134.585,阿波木偶人形会館
33.8881,135.276,真妻山
34.0157,134.578,徳島県立小松島西高等学校
34.2418,134.651,鳴門海峡
33.4667,135.633,キングフィッシュ (潜水艦)
33.9072,135.879,瀞八丁
34.3987,135.285,田尻スカイブリッジ
34.2907,135.744,奈良県立五條高等学校賀名生分校
34.3627,135.485,三国山 (大阪府)
33.9886,135.793,十津川警察署
33.5843,135.923,下里古墳
33.6829,135.344,白良浜
33.4844,135.797,橋杭岩
33.8348,134.75,蒲生田岬
33.9339,135.732,上湯温泉
33.8661,134.655,橘湾発電所
33.6965,135.399,新庄総合公園
33.7753,135.504,滝尻王子
33.9599,134.628,徳島県立富岡東高等学校羽ノ浦校
33.8,135.167,ホエール (潜水艦)
33.7442,135.376,パビリオンシティ田辺
33.5,135.567,スレッドフィン (潜水艦)
33.5475,135.486,海底ポスト
30.75,135.5,ソーフィッシュ (潜水艦)
33.6013,135.944,くじら浜公園
33.2333,134.667,バーフィッシュ (潜水艦)
32.1667,135.9,セネット (潜水艦)
30.8,135.283,バットフィッシュ (潜水艦)
34.6649996,135.2114382,デリカテス アラメゾン 
135.1920586,135.1920586,鉄板焼神戸Fuji
34.693262,135.19019,神戸 プレジール
34.695944,135.194894,GREEN HOUSE Silva(グリーンハウスシルバ)
34.699146,135.194939,LUCIOLE（ルシオル）
34.696101,135.192562,きた山
34.695149,135.192577,イスズベーカリー
34.697366,135.191509,ソネ
34.692913,135.196672,ブランジェリー　コム・シノワ
34.698028,135.191636,あぶり肉工房 和黒
34.694232,135.188426,お気軽健康Cafe あげは
34.691927,135.188798,Modernark pharm Cafe
34.692844,135.191243,神戸牛 喜山
34.691675,135.19224,神戸牛 吉祥吉 三宮店
34.692187,135.197462,神戸牛 吉祥吉 三宮磯上店
34.693297,135.192096,神戸牛 八坐和 阪急三宮店
34.689919,135.191876,神戸牛焼肉 八坐和 本店
34.694049,135.191979,神戸牛 高倉
34.694127,135.191901,神戸牛 源吉
34.694616,135.192009,神戸牛 石窯焼ステーキ 吉らら
34.691358,135.193107,KOBE BEEF LENTAMENTE
34.693799,135.191638,神戸牛 なみ木
34.696901,135.197309,太陽と虎
34.691558,135.189027,カフェMAMOUNIA
34.694216,135.188416,あげは。神戸トアロード店
34.693997,135.192971,Bar＆Bistro 63
34.694388,135.196017,ザ・プレミアム ミント神戸
34.694388,135.196017,かつくらミント神戸店
34.694388,135.196017,シジャン　ミント神戸店
34.694388,135.196017,神戸源氏
34.694388,135.196017,うどんのう
34.694388,135.196017,gram
34.690215,135.191525,神戸洋藝菓子ボックサン
34.691269,135.190881,かつ丼　吉兵衛　
34.695791,135.189276,MADRAS KITCHEN
34.6903,135.189414,ティーハウスムジカ 神戸元町店
34.689775,135.19059,菜っぱ
34.694405,135.196027,天ぷら　島屋
34.683614,135.178262,炭火焼肉　糸桜
34.692144,135.193281,タン・カフェ
34.695731,135.189415,天竺園
34.697655,135.191392,Triton Cafe
34.689691,135.190451,tea room mahisa 元町店
34.697835,135.191281,cafe.shuu
34.695334,135.193236,〜イタリア家庭料理の店〜Rvalentino（アール ヴァレンティーノ）
34.692798,135.198099,カフェ・ゾエ
34.691936,135.189301,Le Dimanche
34.688119,135.187948,老祥記
34.688664,135.188839,劉家荘
34.682625,135.178985,大井肉店
34.689355,135.189051,神戸元町　別館　牡丹園
34.688391,135.188241,神戸牛 黒澤
34.688026,135.187125,神戸牛 吉祥吉 本店
34.688867,135.188256,KOBE BEEF RED ONE
34.688394,135.189238,神戸牛 大地
34.687694,135.186485,神戸牛 八坐和WEST
34.688414,135.18924,神戸南京町　民生　廣東料理
34.684781,135.181138,菓子工房 Pao de lo 元町本店
34.688497,135.188048,洋食屋　アシェット
34.687691,135.185656,パティスリー　グレゴリー・コレ
34.687536,135.18681,神戸マシュマロ浪漫
34.688039,135.188735,?華源　フィーファーヨン
34.687676,135.188238,神戸フクロウカフェ
34.687781,135.186755,東紫縁
34.688036,135.188626,エストローヤル菓子工房
34.688089,135.187343,南京町　友好飯店
34.688281,135.188904,南翔
34.688069,135.187716,北京菜館
34.688116,135.189093,栄和飯店
34.688341,135.186315,観音屋
34.688146,135.188224,東栄酒家
34.688399,135.187873,蓮南京町店
34.688186,135.188329,天仁茗茶
34.687521,135.18682,皇蘭南京町本店
34.6864392,135.1846006,ミ ズ 倶 楽 部 セ ン タ ー
34.688036,135.188626,中華菜館　龍郷
34.687846,135.187618,元祖ぎょうざ苑
34.688259,135.187883,月龍
34.68603747,135.1854784,Est.Est （エストエスト）
34.6880383,135.1880578,南京町
34.6945239,135.1959964,ミント神戸
34.69296,135.1924171,さんちか
34.6886284,135.1883253,大丸神戸
34.6930222,135.1932287,そごう神戸
34.6797716,135.1801557,神戸ハーバーランドumie
34.6643685,135.2163577,ikea kobe
34.664666,135.2125383,ポートピアホテル
34.680326,135.188386,神戸オリエンタルホテル
34.678745,135.184872,アラカンパーニュ
34.696765,135.1861343,サ・マーシュ （Ca marche）
34.696665,135.18642,中国菜館　東天閣
34.704101,135.193435,バレンシア
34.698581,135.188143,ラ　メゾン　ドゥ　グラシアニ　神戸北野
34.698318,135.191122,神戸にしむら珈琲店
34.696256,135.186778,シェローズ
34.700771,135.195168,フロインドリーブ
34.697708,135.188328,スイーツ&ベーカリー「ル・パン神戸北野」
34.697916,135.191169,BISTRO 近藤亭 
34.686671,135.188453,ハオス ダイニングルーム
34.686261,135.18683,モンプリュ
34.693766,34.693766,ステーキ青山
34.693524,135.191259,元祖　鉄板焼ステーキ　みその　神戸本店
34.692855,135.190148,Kobe A-1
34.692489,135.189391,アラカンパーニュ　トアロード店
34.692985,135.190706,紅茶屋マヒシャ
34.682522,135.179796,Fruit Cafe Saita! Saita!
34.67738,135.176877,まもるくん
34.680278,135.273363,Feel Dining Cafe & Sea
34.690174,135.194667,グリル　十字屋
34.688676,135.190451,カフェラ　大丸神戸店
34.687399,135.194398,セントラル （CENTRAL） 
34.688448,135.194521,YURT
34.687221,135.191314,ROUGH RARE(ラフレア)
34.688593,135.19285,Bar & Bistro 64
34.687993,135.190726,旧居留地カフェ
34.69859546,135.1949748,丸高中華そば　神戸二宮店
34.69567045,135.1923693,北野坂　奥
34.691021,135.190672,麺屋 天孫降臨
34.69390369,135.1919469,ボンゴレ亭
34.69169032,135.19225,真っ赤ならーめん とまこ 三宮センタープラザ店
34.69129173,135.1911132,神戸牛らーめん　八坐和
34.68874679,135.1951802,ヌードルダイニング 道麺 居留地店
34.69634688,135.1927393,餃子専門店 祥雲
34.69165282,135.1923864,我流本舗
135.1927435,135.1927435,自家製太麺 ドカ盛 マッチョ 三ノ宮店
34.69603984,135.1915554,火風鼎
34.69245382,135.1907179,わき本
34.69465667,135.1921513,おか林
34.69655647,135.1927562,勇すし
34.69640564,135.1990419,寿司 雅
34.6942328,135.1922353,魚料理 沖の瀬
34.69235438,135.1905335,寿司 真之助
34.69249064,135.1925891,鮨大 立ち喰い部 大ちゃん
34.692202,135.189931,スターボード
34.679194,135.169292,大谷貝つぼ焼 
34.690569,135.192289,PATISSERIE TOOTH TOOTH 本店
34.690613,135.191876,神戸大使館ニューミュンヘン
34.676346,135.168427,神戸湊ビール
34.691956,135.196883,LAPUTA the FLANDERS TALE
34.692506,135.190344,HOP STAND
34.692741,135.191713,YEBISUBAR 神戸三宮店
34.691037,135.194802,神戸ビアホール　ポートサイド
34.69234,135.191752,ビア カフェ ド ブルージュ
34.702394,135.19079,ウィーン・オーストリアの家
34.87834,135.178434,キリンビール 神戸工場　丘の上のビアレストラン
34.692706,135.193942,ジャンボカラオケ広場 三宮駅前店 
34.693272,135.191617,ジャンボカラオケ広場 生田新道店
34.679426,135.176321,ジャンボカラオケ広場 JR神戸店
34.694813,135.193136,ジャンボカラオケ広場 北野坂店
34.689652,135.188956,ジャンボカラオケ広場 元町駅前2号店
34.693291,135.192464,ジャンボカラオケ広場 サンキタ通り店
34.692588,135.191212,ジャンボカラオケ広場 
,,ビッグエコー
34.693608,135.192803,三宮駅前店
34.693863,135.192634,コート・ダジュール 三宮駅前店
,,ラウンドワン
34.693933,135.197375,三宮駅前店
,,マック
34.693585,135.192723,神戸三宮店
,,カラオケ館
34.694738,135.193061,北野坂店　
,,カラオケ館
34.693788,135.191406,東門街店
,,快活CLUB
34.695571,135.196394,三宮駅前店
34.692516,135.191367,カラオケ　リアル
34.646,135.513,あべのハルカス
34.66,135.586,司馬遼太郎記念館
35.3588,136.171,琵琶湖国定公園
34.7797,135.44,伊丹スカイパーク
34.8838,135.703,飛行神社
34.565,135.488,大仙陵古墳
34.689467,135.195755,神戸市役所１号館24階
35.4535,135.1064,大江山
34.688716,135.190447,旧居留地
35.5549,134.488,湯村温泉 (兵庫県)
35.0228,135.713,双ヶ丘
34.6781,135.157,会下山
34.6934,135.505,大阪市立東洋陶磁美術館
34.8069,134.6391,英賀城
34.8942,135.81,宇治市源氏物語ミュージアム
34.9505,135.7474,離宮八幡宮
34.852,135.596,今城塚古代歴史館
34.622,135.497,帝塚山古墳
35.0032,134.997,日本へそ公園
34.7625,135.242,六甲高山植物園
34.7625,135.242,六甲高山植物園
34.8813,134.451,感状山城
34.6539,135.117,須磨離宮公園
34.6539,135.516,四天王寺
34.413,135.529,関西サイクルスポーツセンター
34.8888,135.8074,平等院鳳翔館
34.8911,134.658,圓教寺
34.8911,135.811,宇治神社
35.024,135.719,春光院
34.9807,135.738,西寺
35.0603,135.753,賀茂神社
35.0603,135.753,賀茂別雷神社
35.0603,135.678,高山寺
34.7172,135.191,神戸布引ロープウェイ
35.1598,134.551,波賀城史跡公園
34.9705,135.6903,樫原廃寺跡
34.6693,135.476,大阪ドーム
34.9441,135.6972,向日神社
34.8333,134.7,姫路城
35.0156,135.674,天龍寺
34.7723,134.553,新舞子海水浴場
34.85,135.594,今城塚古墳
35.0142,135.747,二条城
34.7523,134.833,鶴林寺 (加古川市)
35.49,134.684,八反滝 (豊岡市)
35.4467,134.517,久須部渓谷
34.7097,135.194,布引の滝
34.8932,135.808,放生院 (宇治市)
35.5884,134.805,玄武洞
34.6545,135.429,海遊館
34.437,135.336,二色の浜公園
34.7436,135.356,兵庫県立芸術文化センター
35.217,135.432,大福光寺
34.8058,135.638,ひらかたパーク
34.6918,135.492,国立国際美術館
35.0394,135.729,鹿苑寺
34.9774,135.775,龍吟庵
34.7954,135.7619,観音寺 (京田辺市)
35.3241,135.224,楞厳寺 (綾部市)
35.0389,135.773,賀茂御祖神社
34.7099,135.273,浜福鶴吟醸工房
35.0344,135.718,龍安寺
35.0073,135.783,青蓮院
34.7814,134.971,三木ホースランドパーク
35.4746,135.3854,舞鶴市政記念館
34.7342,135.206,掬星台
36.5626,136.362,山陰海岸国立公園
34.9781,135.781,泉涌寺
34.665008,135.503591,なんばグランド花月
34.8958,135.679,宝積寺
35.0158,135.689,車折神社
34.7357,135.335,西宮神社
34.399,135.386,水間寺
34.9514,135.821,醍醐寺
34.665,135.507,黒門市場
34.5031,135.644,大阪府立近つ飛鳥博物館
34.8548,135.7896,水度神社
35.1181,135.771,鞍馬寺
34.6647,135.433,ユニバーサル・スタジオ・ジャパン
34.328,135.161,みさき公園
34.9672,135.773,伏見稲荷大社
34.7644,135.246507,六甲ガーデンテラス
34.9433,135.703,長岡京
34.8294,135.909,金胎寺
35.0439,135.745,聚光院
34.7222,135.3112,芦屋市谷崎潤一郎記念館
34.682759,135.187303,神戸ポートタワー
35.5672,135.19,丹後天橋立大江山国定公園
34.569,135.618,道明寺天満宮
34.569,135.466,南宗寺
35.3036,135.1254,福知山市治水記念館
35.3539,134.514,氷ノ山
35.0593,135.753,上賀茂
34.6391,135.099,須磨浦ロープウェイ
35.0267,135.798,慈照寺
35.51,135.67,若狭湾国定公園
34.8381,134.69,好古園
35.3409,135.307,安国寺 (綾部市)
34.9061,135.81,隼上り瓦窯跡
35.1833,134.4,後山
34.681,135.175,湊川神社
35.0443,135.7464,真珠庵
34.672483,135.201711,ポーアイしおさい公園
35.2390411,134.8796124,朝来群山県立自然公園
34.4111,135.3,りんくうゲートタワービル
34.9986,135.779,法観寺
35.0645,135.769,円通寺 (京都市)
34.9925,135.7546,法輪寺 (京都市西京区)
34.9925,135.684,西芳寺
34.9357,134.83,酒見寺
35.06,135.634,愛宕山 (京都市)
34.995,135.785,清水寺
34.7699,135.441,田能遺跡
34.7069,135.197,竹中大工道具館
35.4904411,134.5086266,但馬山岳県立自然公園
34.7844,135.439,大阪国際空港
34.9363,135.689,乙訓寺
34.6548,135.426,天保山
34.8388,135.469,箕面温泉
34.9875,135.759,京都タワー
34.475,135.642,ワールド牧場
34.8833,135.7,神応寺 (八幡市)
34.7768,135.862,海住山寺
34.7813,135.421,伊丹城
34.7813,134.8,高砂市総合運動公園
34.68863,135.505984,少彦名神社
34.9432,135.701,南真経寺
34.697176,135.180686,ビーナスブリッジ
34.99,135.773,京都国立博物館
34.8101,135.528,万博記念公園
34.7053,135.49,梅田スカイビル
35.0116,135.787,無鄰菴
34.8648,135.779,久津川車塚古墳
34.8418,134.688,姫路文学館
34.6965,135.067,太山寺 (神戸市)
34.6965,135.067,太山寺安養院庭園
34.6615,135.502,なんばパークス
35.6167,134.433,山陰海岸ジオパーク館
35.0231,135.72,妙心寺
35.3144,135.1964,私市円山古墳
35.4974,135.469,松尾寺 (舞鶴市)
35.0071,135.7121,蛇塚古墳
35.0071,135.7121,天塚古墳
34.8604,135.784,正道官衙遺跡
35.6752,135.287,伊根の舟屋
35.3019,135.126,福知山鉄道館ポッポランド
34.6522,135.506,通天閣
35.4819,134.87,出石神社
34.685478,135.504101,綿業会館
35.4433,135.324,円隆寺 (舞鶴市)
35.0437,135.796,詩仙堂
34.9385,135.675,光明寺 (長岡京市)
35.1217,135.763,貴船神社
35.0167,135.782,平安神宮
34.9921,135.772,方広寺
35.035,135.7522,本法寺 (京都市)
34.8134,135.7632,田辺城 (丹後国)
34.7457,134.389,赤穂城
34.654,135.486,大阪人権博物館
34.8923,135.68,妙喜庵
34.8815362,134.4513444,西播丘陵県立自然公園
34.6383,135.415,大阪府咲洲庁舎
34.7648,135.317,北山緑化植物園
34.9325,135.044,朝光寺
34.710111,135.573707,花博記念公園鶴見緑地
35.5562,135.255,魚っ知館
34.9878,135.772,三十三間堂
34.6502,135.0016,柿本神社 (明石市)
35.0112,135.856,琵琶湖疏水
35.6662,134.533,釣鐘洞門
35.0094,135.762,有馬玩具博物館
34.67,135.651,枚岡神社
34.9382,135.644,善峯寺
35.0411,135.5869,愛宕神社 (亀岡市)
34.6981,135.521,泉布観
35.0036,135.779,八坂神社
34.4588,135.371,岸和田城
35.0117,135.7813,藤井斉成会有鄰館
35.0117,135.759,京都国際マンガミュージアム
35.5694,135.192,天橋立
34.9145,135.698,恵解山古墳
35.0488,135.803,曼殊院
34.8613,135.403,多田神社
34.6826,135.187,神戸ポートタワー
34.7611,135.799,常念寺 (京都府精華町)
34.7999,134.988,三木城
34.8894,135.808,平等院
34.661,135.642,瓢箪山稲荷神社
34.9392644,135.0665606,清水東条湖立杭県立自然公園
34.6842,135.527,豊國神社 (大阪市)
35.61,135.221,金剛心院
34.703,135.191,うろこの家・うろこ美術館
34.695,135.191,生田神社
35.0155,135.707,広隆寺
35.0192,135.716,法金剛院
34.6526,135.508,大阪市天王寺動物園
35.4030132,134.9135706,出石糸井県立自然公園
34.8797,135.7,石清水八幡宮
35.0204,135.6819,霞中庵 竹内栖鳳記念館
34.5626,135.01,淡路夢舞台
34.669,135.528,真田山公園
35.0706,135.841,延暦寺
34.734234,135.206355,まやビューライン　掬星台
34.7204,135.362,甲子園歴史館
34.7621,135.8178,椿井大塚山古墳
34.6525,134.992,明石城
35.021,135.7555,京都府庁旧本館
35.4414,134.526,うへ山の棚田
34.6682,135.171,能福寺
35.0176,135.793,泉屋博古館
35.0207,135.752,古義堂
34.8658,135.491,勝尾寺
34.7535,135.9415,笠置山 (京都府)
34.9904,135.776,妙法院
35.0432,135.74,孤篷庵
35.0089,135.48,延福寺 (亀岡市)
34.854,135.472,箕面滝
35.3476,134.711,樽見の大桜
34.9518,135.82,醍醐寺三宝院庭園
34.559,135.482,大仙公園
34.7161,135.873,浄瑠璃寺
34.7414,135.3252,カトリック夙川教会
35.236,135.32,質志鍾乳洞
34.7411,135.178,神戸市立森林植物園
34.7411,135.178,神戸市立森林植物園
35.0178,135.74,豊楽院
35.0453,135.745,芳春院 (京都市)
34.638,135.411,アジア太平洋トレードセンター
34.7825,135.4173,伊丹市立美術館
35.0283,135.678,大覚寺
35.5828,135.197,籠神社
35.0537,135.802,修学院離宮
34.65,135.511,慶沢園
34.6791,135.182,神戸ハーバーランド
34.7153,135.192,布引ハーブ園
34.7765,135.485,服部緑地
34.8497,135.921,正寿院 (京都府宇治田原町)
34.8703,135.7011,正法寺 (八幡市)
34.6542,135.223,神戸どうぶつ王国
35.0124,135.782,京都国立近代美術館
34.687,135.195,日本真珠会館
34.701,135.189,旧シャープ住宅
34.9342,135.815,法界寺
34.6714,135.147,長田神社
34.5629,135.629,安福寺 (柏原市)
35.0248,135.7224,桂春院
35.0314,135.7351,北野天満宮
35.0683254,134.8117225,笠形山千ヶ峰県立自然公園
35.4761,135.3874,赤れんが博物館
34.8711,135.8732,禅定寺 (京都府宇治田原町)
34.678478,135.178638,神戸ハーバーランド
35.0633,134.666,雪彦峰山県立自然公園
35.0419,135.743,龍光院 (京都市北区)
34.78,135.639,成田山大阪別院明王院
35.0165,135.783,平安神宮神苑
34.3378,134.903,洲本城
34.7218,135.3103,芦屋市立美術博物館
35.0151,135.671,嵐山
35.0123,135.77,高瀬川一之船入
34.9292,135.7617,月桂冠大倉記念館
34.8944,135.681,大念寺 (京都府大山崎町)
34.9437,135.706,北真経寺
35.0008,135.781,高台寺
34.6567,135.169,御崎公園球技場
35.0198,135.759,聖アグネス教会
34.6721,135.498,アメリカ村
35.3106,135.1387,福知山市動物園
35.085,135.5567,梅田神社 (亀岡市)
35.4877,134.873,此隅山城
35.0253,135.762,京都御所
34.7981,135.247,有馬温泉
34.6817,135.188,メリケンパーク
35.6997,135.042,琴引浜
35.0011,135.774,建仁寺
34.6128,135.493,住吉大社
34.9742,135.774,東福寺
34.8626,135.7779,平川廃寺跡
34.8123,135.786,法泉寺 (京田辺市)
35.4339,134.6144,猿尾滝
34.6789,135.163806?,願成寺 (神戸市)
35.0003,135.685,松尾大社
34.639,135.641,心合寺山古墳
35.0064,135.784,知恩院
35.0145,135.795,禅林寺 (京都市)
35.3053,135.2579,グンゼ博物苑
34.7212,135.362,阪神甲子園球場
35.0111,135.794,南禅寺
34.8576,135.479,明治の森箕面国定公園
34.8485764,134.8408231,播磨中部丘陵県立自然公園
34.6707,135.462,交通科学博物館
35.6497,134.56,余部橋梁
34.664624,135.503074,大阪府立上方演芸資料館
34.9246,134.8363,丸山総合公園 (加西市)
34.6498,135.511,天王寺公園
35.0042,135.695,梅宮大社
35.312,135.137,福知山市都市緑化植物園
34.8677,134.752,姫路セントラルパーク
35.0033,135.781,円山公園 (京都府)
34.864,135.592,あくあぴあ芥川
34.6372,135.418,大阪国際見本市会場
34.9988,135.1044,こんだ薬師温泉
34.664,135.501,なんばCITY
35.0319,135.74,大報恩寺
34.7751,134.543,綾部山
34.9915,135.77,耳塚
34.61,135.474,大阪護國神社
35.4619,134.8716,永楽館
35.0251,135.796,哲学の道
34.9191254,135.3557141,猪名川渓谷県立自然公園
34.394,135.288,田尻歴史館
34.9806,135.748,東寺
34.7334,135.206,摩耶ロープウェー
34.6685,135.481,道頓堀
35.0446,135.746,大仙院
34.6874,135.526,大阪城公園
35.0511,135.765,京都府立陶板名画の庭
34.7472,135.775,けいはんな記念公園
34.7864,135.816,蟹満寺
34.7202,135.886,岩船寺
34.6119,135.521,長居公園
35.0351,135.7261,京都府立堂本印象美術館
35.6595,134.587,鎧の袖
35.057,135.5707,千歳車塚古墳
35.1042201,135.2640915,多紀連山県立自然公園
35.0006,135.779,圓徳院
34.7518,135.237,六甲山観光六甲ケーブル線
35.4765,135.447,金剛院 (舞鶴市)
35.3085,135.1774,浦嶋神社
34.8796,135.702,松花堂
35.2975,135.1304,福知山市佐藤太清記念美術館
34.6828,135.1883,カワサキワールド
34.6828,135.188,神戸海洋博物館
34.714377,135.191913,神戸布引ハーブ園 / ロープウェイ
34.7517,135.209,神戸市立六甲山牧場
35.4929,135.101,白米山古墳
34.635,135.401,大阪南港野鳥園
35.3005,134.829,竹田城
35.5912,135.1019,大宮売神社
34.727,135.212,神戸すまいまちづくり公社摩耶ケーブル線
35.0087,135.546,金剛寺 (亀岡市)
35.055,135.671,神護寺
34.696,135.513,大阪天満宮
34.6261,135.048,三井アウトレットパーク マリンピア神戸
35.031,135.714,仁和寺
34.9846,135.812,山科本願寺
35.0035,135.775,祇園
34.8659,134.354,上郡駅
34.8593,134.819,一乗寺
35.0067,135.549,穴太寺
34.5835,135.459,旧堺燈台
34.7778,135.264,六甲山
34.7167,135.2,摩耶山
34.7167,134.867,兵庫県立考古博物館
34.7656,135.863,恭仁京
34.9005,135.819,三室戸寺
35.0732,135.218,篠山城
34.748753,135.225077,鉢巻天覧台
34.676626,135.204618,ポートアイランド北公園
34.4486,135.357,願泉寺 (貝塚市)
34.512,135.858,茶臼山古墳
35.6525,134.9778,京丹後市立網野郷土資料館
35.5586,135.184,智恩寺 (宮津市)
34.752017,135.237226,六甲ケーブル　天覧台
35.0336,135.7627,承天閣美術館
34.7674,134.5053,たつの市立室津海駅館
34.6494,135.001,明石市立天文科学館
34.9139,135.807,萬福寺
35.2968,135.13,福知山城
34.631301,135.035766,明石海峡大橋（パールブリッジ）
35.0358,135.405,るり渓
34.6912,135.492,大阪市立科学館
34.6422,134.99,旧波門崎燈籠堂
35.4606,134.874,出石城
34.8801,135.884,猿丸神社
35.0168,135.2459,永澤寺
34.9914,135.773,豊国神社 (京都市)
34.6499,135.506,ジャンジャン横丁
35.044,135.747,大徳寺
35.0415,135.579,丹波国分寺
35.0294,135.776,清風荘
34.338,135.388,七宝瀧寺
34.6675,135.509,国立文楽劇場
35.1373,134.7913,ヨーデルの森
34.9839,135.709,桂離宮
35.0667,135.838,比叡山
35.0875,134.586,伊和神社
34.704,135.5,HEP
35.0219,135.7193,退蔵院
35.2351786,134.5519707,音水ちくさ県立自然公園
35.1772,135.397,九手神社
34.9918,135.752,西本願寺
35.0128,135.784,京都市美術館
34.8072,135.346,宝塚大劇場
34.636803,135.228703,神戸空港マリンエア
35.5954,135.187,成相寺
35.5318,135.387,多禰寺
34.6992,135.218,兵庫県立美術館
34.6992,135.218,兵庫県立美術館
34.8919,135.811,宇治上神社
34.6872,135.193,神戸市立博物館
34.9375,135.781,伏見城
34.6567105,134.9938879,兵庫県立明石公園
34.8601,135.445,久安寺 (池田市)
34.5018,135.427,池上・曽根遺跡
34.4343,135.554,大阪府立花の文化園
34.8642,134.961,浄土寺 (小野市)
34.5618,135.008,奇跡の星の植物館
34.991,135.758,東本願寺
34.6833,135.167,神戸市水の科学博物館
34.821,135.758,酬恩庵
35.0269,135.794,白沙村荘
34.9452,134.6903,塩田温泉
34.8678,135.7781,芭蕉塚古墳
34.95,135.744,鳥羽離宮
34.7473,135.871,常念寺
35.0103,135.794,南禅院
35.0103,135.7905,金地院
34.457,135.514,堺・緑のミュージアム ハーベストの丘
34.7241,135.333,西宮砲台
35.3055,135.2573,グンゼ記念館
34.5003,135.603,富田林寺内町
35.1197,135.834,三千院
34.8602,135.192,神戸三田プレミアム・アウトレット
34.6925,135.182,相楽園
34.6174683,135.0216751,明石海峡大橋
